{
"type": "FeatureCollection",
"crs": { "type": "name", "properties": { "name": "urn:ogc:def:crs:OGC:1.3:CRS84" } },
"features": [
{ "type": "Feature", "properties": { "site": "Drax", "operator": "Drax Power Ltd", "type": "Coal", "fuelDetail": "-", "capacity": 3870.0, "lowCarbon": "No", "chp": "-", "yearOpen": "1974", "yearStart": 2004.0, "yearEnd": 2012 }, "geometry": { "type": "Point", "coordinates": [ -0.999021, 53.737546 ] } },
{ "type": "Feature", "properties": { "site": "Drax coal", "operator": "Drax Power Ltd", "type": "Coal", "fuelDetail": "-", "capacity": 3225.0, "lowCarbon": "No", "chp": "-", "yearOpen": "1974", "yearStart": 2013.0, "yearEnd": 2013 }, "geometry": { "type": "Point", "coordinates": [ -0.999021, 53.737546 ] } },
{ "type": "Feature", "properties": { "site": "Hinkley Point C", "operator": "EDF Energy", "type": "Nuclear", "fuelDetail": "-", "capacity": 3200.0, "lowCarbon": "Yes", "chp": "-", "yearOpen": "2026", "yearStart": 2019.0, "yearEnd": 2019 }, "geometry": { "type": "Point", "coordinates": [ -3.144, 51.206 ] } },
{ "type": "Feature", "properties": { "site": "Drax biomass", "operator": "Drax Power Ltd", "type": "Biomass", "fuelDetail": "-", "capacity": 2580.0, "lowCarbon": "Yes", "chp": "-", "yearOpen": "1974", "yearStart": 2019.0, "yearEnd": 2019 }, "geometry": { "type": "Point", "coordinates": [ -0.999021, 53.737196 ] } },
{ "type": "Feature", "properties": { "site": "Drax biomass", "operator": "Drax Power Ltd", "type": "Biomass", "fuelDetail": "-", "capacity": 2580.0, "lowCarbon": "Yes", "chp": "-", "yearOpen": "1974", "yearStart": 2018.0, "yearEnd": 2018 }, "geometry": { "type": "Point", "coordinates": [ -0.999021, 53.737196 ] } },
{ "type": "Feature", "properties": { "site": "Drax coal", "operator": "Drax Power Ltd", "type": "Coal", "fuelDetail": "-", "capacity": 2580.0, "lowCarbon": "No", "chp": "-", "yearOpen": "1974", "yearStart": 2014.0, "yearEnd": 2015 }, "geometry": { "type": "Point", "coordinates": [ -0.999021, 53.737546 ] } },
{ "type": "Feature", "properties": { "site": "Longannet", "operator": "Scottish Power", "type": "Coal", "fuelDetail": "-", "capacity": 2304.0, "lowCarbon": "No", "chp": "-", "yearOpen": "1970", "yearStart": 2004.0, "yearEnd": 2013 }, "geometry": { "type": "Point", "coordinates": [ -3.682552, 56.048549 ] } },
{ "type": "Feature", "properties": { "site": "Longannet", "operator": "Scottish Power", "type": "Coal", "fuelDetail": "-", "capacity": 2260.0, "lowCarbon": "No", "chp": "-", "yearOpen": "1970", "yearStart": 2014.0, "yearEnd": 2015 }, "geometry": { "type": "Point", "coordinates": [ -3.682552, 56.048549 ] } },
{ "type": "Feature", "properties": { "site": "Pembroke", "operator": "RWE Generation SE", "type": "Gas", "fuelDetail": "Combined cycle", "capacity": 2199.0, "lowCarbon": "No", "chp": "-", "yearOpen": "2012", "yearStart": 2019.0, "yearEnd": 2019 }, "geometry": { "type": "Point", "coordinates": [ -4.996357, 51.68447 ] } },
{ "type": "Feature", "properties": { "site": "Pembroke", "operator": "RWE Generation SE", "type": "Gas", "fuelDetail": "Combined cycle", "capacity": 2199.0, "lowCarbon": "No", "chp": "-", "yearOpen": "2012", "yearStart": 2012.0, "yearEnd": 2018 }, "geometry": { "type": "Point", "coordinates": [ -4.996357, 51.68447 ] } },
{ "type": "Feature", "properties": { "site": "Littlebrook D", "operator": "RWE Npower Plc", "type": "Oil", "fuelDetail": "-", "capacity": 2055.0, "lowCarbon": "No", "chp": "-", "yearOpen": "1982", "yearStart": 2005.0, "yearEnd": 2008 }, "geometry": { "type": "Point", "coordinates": [ 0.241644, 51.465333 ] } },
{ "type": "Feature", "properties": { "site": "Ratcliffe", "operator": "Uniper UK Limited", "type": "Coal", "fuelDetail": "-", "capacity": 2021.0, "lowCarbon": "No", "chp": "-", "yearOpen": "1968", "yearStart": 2018.0, "yearEnd": 2018 }, "geometry": { "type": "Point", "coordinates": [ -1.254693, 52.865936 ] } },
{ "type": "Feature", "properties": { "site": "West Burton", "operator": "EDF Energy", "type": "Coal", "fuelDetail": "-", "capacity": 2012.0, "lowCarbon": "No", "chp": "-", "yearOpen": "1967", "yearStart": 2009.0, "yearEnd": 2018 }, "geometry": { "type": "Point", "coordinates": [ -0.811836, 53.362719 ] } },
{ "type": "Feature", "properties": { "site": "Cottam", "operator": "EDF Energy", "type": "Coal", "fuelDetail": "-", "capacity": 2008.0, "lowCarbon": "No", "chp": "-", "yearOpen": "1969", "yearStart": 2004.0, "yearEnd": 2018 }, "geometry": { "type": "Point", "coordinates": [ -0.780451, 53.304764 ] } },
{ "type": "Feature", "properties": { "site": "Ratcliffe", "operator": "Uniper UK Limited", "type": "Coal", "fuelDetail": "-", "capacity": 2000.0, "lowCarbon": "No", "chp": "-", "yearOpen": "1968", "yearStart": 2004.0, "yearEnd": 2017 }, "geometry": { "type": "Point", "coordinates": [ -1.254693, 52.865936 ] } },
{ "type": "Feature", "properties": { "site": "West Burton", "operator": "EDF Energy", "type": "Coal", "fuelDetail": "-", "capacity": 1972.0, "lowCarbon": "No", "chp": "-", "yearOpen": "1967", "yearStart": 2004.0, "yearEnd": 2008 }, "geometry": { "type": "Point", "coordinates": [ -0.811836, 53.362719 ] } },
{ "type": "Feature", "properties": { "site": "Fiddler’s Ferry", "operator": "SSE", "type": "Coal", "fuelDetail": "-", "capacity": 1961.0, "lowCarbon": "No", "chp": "-", "yearOpen": "1971", "yearStart": 2004.0, "yearEnd": 2018 }, "geometry": { "type": "Point", "coordinates": [ -2.686922, 53.37195 ] } },
{ "type": "Feature", "properties": { "site": "Ferrybridge C", "operator": "Scottish and Southern", "type": "Coal", "fuelDetail": "-", "capacity": 1960.0, "lowCarbon": "No", "chp": "-", "yearOpen": "1966", "yearStart": 2009.0, "yearEnd": 2013 }, "geometry": { "type": "Point", "coordinates": [ -1.280574, 53.715638 ] } },
{ "type": "Feature", "properties": { "site": "Eggborough", "operator": "Eggborough Power Ltd", "type": "Coal", "fuelDetail": "-", "capacity": 1960.0, "lowCarbon": "No", "chp": "-", "yearOpen": "1967", "yearStart": 2004.0, "yearEnd": 2018 }, "geometry": { "type": "Point", "coordinates": [ -1.12485, 53.712671 ] } },
{ "type": "Feature", "properties": { "site": "Ratcliffe", "operator": "E.On UK", "type": "Coal", "fuelDetail": "-", "capacity": 1960.0, "lowCarbon": "No", "chp": "-", "yearOpen": "1968", "yearStart": 2011.0, "yearEnd": 2012 }, "geometry": { "type": "Point", "coordinates": [ -1.254693, 52.865936 ] } },
{ "type": "Feature", "properties": { "site": "Didcot A", "operator": "RWE Npower Plc", "type": "Coal", "fuelDetail": "-", "capacity": 1958.0, "lowCarbon": "No", "chp": "-", "yearOpen": "1972", "yearStart": 2007.0, "yearEnd": 2012 }, "geometry": { "type": "Point", "coordinates": [ -1.260853, 51.622252 ] } },
{ "type": "Feature", "properties": { "site": "Ferrybridge C", "operator": "Scottish & Southern Energy plc", "type": "Coal", "fuelDetail": "-", "capacity": 1955.0, "lowCarbon": "No", "chp": "-", "yearOpen": "1966", "yearStart": 2004.0, "yearEnd": 2008 }, "geometry": { "type": "Point", "coordinates": [ -1.280574, 53.715638 ] } },
{ "type": "Feature", "properties": { "site": "Kingsnorth", "operator": "E.On UK", "type": "Coal", "fuelDetail": "-", "capacity": 1940.0, "lowCarbon": "No", "chp": "-", "yearOpen": "1970", "yearStart": 2004.0, "yearEnd": 2012 }, "geometry": { "type": "Point", "coordinates": [ 0.603039, 51.416713 ] } },
{ "type": "Feature", "properties": { "site": "Didcot A", "operator": "RWE Npower Plc", "type": "Coal", "fuelDetail": "-", "capacity": 1940.0, "lowCarbon": "No", "chp": "-", "yearOpen": "1972", "yearStart": 2005.0, "yearEnd": 2006 }, "geometry": { "type": "Point", "coordinates": [ -1.260853, 51.622252 ] } },
{ "type": "Feature", "properties": { "site": "Drax coal", "operator": "Drax Power Ltd", "type": "Coal", "fuelDetail": "-", "capacity": 1935.0, "lowCarbon": "No", "chp": "-", "yearOpen": "1974", "yearStart": 2016.0, "yearEnd": 2017 }, "geometry": { "type": "Point", "coordinates": [ -0.999021, 53.737546 ] } },
{ "type": "Feature", "properties": { "site": "Drax biomass", "operator": "Drax Power Ltd", "type": "Biomass", "fuelDetail": "-", "capacity": 1935.0, "lowCarbon": "Yes", "chp": "-", "yearOpen": "1974", "yearStart": 2016.0, "yearEnd": 2017 }, "geometry": { "type": "Point", "coordinates": [ -0.999021, 53.737196 ] } },
{ "type": "Feature", "properties": { "site": "Didcot A", "operator": "RWE Innogy Plc", "type": "Coal", "fuelDetail": "-", "capacity": 1925.0, "lowCarbon": "No", "chp": "-", "yearOpen": "1972", "yearStart": 2004.0, "yearEnd": 2004 }, "geometry": { "type": "Point", "coordinates": [ -1.260853, 51.622252 ] } },
{ "type": "Feature", "properties": { "site": "Teesside Power Station", "operator": "GDF Suez", "type": "Gas", "fuelDetail": "Combined cycle", "capacity": 1875.0, "lowCarbon": "No", "chp": "-", "yearOpen": "1992", "yearStart": 2004.0, "yearEnd": 2010 }, "geometry": { "type": "Point", "coordinates": [ -1.1326431, 54.5739887 ] } },
{ "type": "Feature", "properties": { "site": "Staythorpe C", "operator": "RWE Generation SE", "type": "Gas", "fuelDetail": "Combined cycle", "capacity": 1772.0, "lowCarbon": "No", "chp": "-", "yearOpen": "2010", "yearStart": 2019.0, "yearEnd": 2019 }, "geometry": { "type": "Point", "coordinates": [ -0.8557307, 53.07474 ] } },
{ "type": "Feature", "properties": { "site": "Staythorpe C", "operator": "RWE Generation SE", "type": "Gas", "fuelDetail": "Combined cycle", "capacity": 1772.0, "lowCarbon": "No", "chp": "-", "yearOpen": "2010", "yearStart": 2010.0, "yearEnd": 2018 }, "geometry": { "type": "Point", "coordinates": [ -0.8557307, 53.07474 ] } },
{ "type": "Feature", "properties": { "site": "Dinorwig", "operator": "First Hydro Company", "type": "Storage", "fuelDetail": "Pumped Hydro", "capacity": 1728.0, "lowCarbon": "Yes", "chp": "-", "yearOpen": "1983", "yearStart": 2004.0, "yearEnd": 2019 }, "geometry": { "type": "Point", "coordinates": [ -4.11389277941, 53.118606686899994 ] } },
{ "type": "Feature", "properties": { "site": "Aberthaw B", "operator": "RWE Generation SE", "type": "Coal", "fuelDetail": "-", "capacity": 1610.0, "lowCarbon": "No", "chp": "-", "yearOpen": "1971", "yearStart": 2018.0, "yearEnd": 2018 }, "geometry": { "type": "Point", "coordinates": [ -3.406215, 51.387006 ] } },
{ "type": "Feature", "properties": { "site": "Aberthaw B", "operator": "RWE Npower Plc", "type": "Coal", "fuelDetail": "-", "capacity": 1586.0, "lowCarbon": "No", "chp": "-", "yearOpen": "1971", "yearStart": 2008.0, "yearEnd": 2017 }, "geometry": { "type": "Point", "coordinates": [ -3.406215, 51.387006 ] } },
{ "type": "Feature", "properties": { "site": "Didcot B", "operator": "RWE Generation SE", "type": "Gas", "fuelDetail": "Combined cycle", "capacity": 1550.0, "lowCarbon": "No", "chp": "-", "yearOpen": "1998", "yearStart": 2019.0, "yearEnd": 2019 }, "geometry": { "type": "Point", "coordinates": [ -1.266393, 51.624926 ] } },
{ "type": "Feature", "properties": { "site": "Didcot B", "operator": "RWE Generation SE", "type": "Gas", "fuelDetail": "Combined cycle", "capacity": 1550.0, "lowCarbon": "No", "chp": "-", "yearOpen": "1998", "yearStart": 2018.0, "yearEnd": 2018 }, "geometry": { "type": "Point", "coordinates": [ -1.266393, 51.624926 ] } },
{ "type": "Feature", "properties": { "site": "Peterhead", "operator": "Scottish & Southern Energy plc", "type": "Gas", "fuelDetail": "Combined cycle", "capacity": 1540.0, "lowCarbon": "No", "chp": "-", "yearOpen": "1980", "yearStart": 2004.0, "yearEnd": 2009 }, "geometry": { "type": "Point", "coordinates": [ -1.788229, 57.47774 ] } },
{ "type": "Feature", "properties": { "site": "Grain CHP", "operator": "Uniper UK Limited", "type": "Gas", "fuelDetail": "Combined cycle", "capacity": 1517.0, "lowCarbon": "No", "chp": "Yes", "yearOpen": "2010", "yearStart": 2018.0, "yearEnd": 2018 }, "geometry": { "type": "Point", "coordinates": [ 0.7114, 51.4444 ] } },
{ "type": "Feature", "properties": { "site": "Grain CHP", "operator": "Uniper UK Limited", "type": "Gas", "fuelDetail": "Combined cycle", "capacity": 1517.0, "lowCarbon": "No", "chp": "Yes", "yearOpen": "2010", "yearStart": 2019.0, "yearEnd": 2019 }, "geometry": { "type": "Point", "coordinates": [ 0.7114, 51.4444 ] } },
{ "type": "Feature", "properties": { "site": "Didcot B", "operator": "RWE Npower Plc", "type": "Gas", "fuelDetail": "Combined cycle", "capacity": 1470.0, "lowCarbon": "No", "chp": "-", "yearOpen": "1998", "yearStart": 2014.0, "yearEnd": 2017 }, "geometry": { "type": "Point", "coordinates": [ -1.266393, 51.624926 ] } },
{ "type": "Feature", "properties": { "site": "Aberthaw B", "operator": "RWE Npower Plc", "type": "Coal", "fuelDetail": "-", "capacity": 1455.0, "lowCarbon": "No", "chp": "-", "yearOpen": "1971", "yearStart": 2004.0, "yearEnd": 2007 }, "geometry": { "type": "Point", "coordinates": [ -3.406215, 51.387006 ] } },
{ "type": "Feature", "properties": { "site": "Didcot B", "operator": "RWE Npower Plc", "type": "Gas", "fuelDetail": "Combined cycle", "capacity": 1430.0, "lowCarbon": "No", "chp": "-", "yearOpen": "1998", "yearStart": 2010.0, "yearEnd": 2013 }, "geometry": { "type": "Point", "coordinates": [ -1.266393, 51.624926 ] } },
{ "type": "Feature", "properties": { "site": "West Burton CCGT", "operator": "EDF Energy", "type": "Gas", "fuelDetail": "Combined cycle", "capacity": 1410.0, "lowCarbon": "No", "chp": "-", "yearOpen": "2012", "yearStart": 2012.0, "yearEnd": 2014 }, "geometry": { "type": "Point", "coordinates": [ -0.7976, 53.3631 ] } },
{ "type": "Feature", "properties": { "site": "Grain CHP", "operator": "Uniper UK Limited", "type": "Gas", "fuelDetail": "Combined cycle", "capacity": 1404.0, "lowCarbon": "No", "chp": "Yes", "yearOpen": "2010", "yearStart": 2017.0, "yearEnd": 2017 }, "geometry": { "type": "Point", "coordinates": [ 0.7114, 51.4444 ] } },
{ "type": "Feature", "properties": { "site": "Hornsea Project Two - Optimus and Breesea", "operator": "Orsted (formerly Dong Energy)", "type": "Wind", "fuelDetail": "Offshore Wind", "capacity": 1400.0, "lowCarbon": "Yes", "chp": "-", "yearOpen": "-", "yearStart": 2019.0, "yearEnd": 2019 }, "geometry": { "type": "Point", "coordinates": [ 1.53998637008, 53.959998188699998 ] } },
{ "type": "Feature", "properties": { "site": "Didcot B", "operator": "RWE Npower Plc", "type": "Gas", "fuelDetail": "Combined cycle", "capacity": 1390.0, "lowCarbon": "No", "chp": "-", "yearOpen": "1998", "yearStart": 2007.0, "yearEnd": 2009 }, "geometry": { "type": "Point", "coordinates": [ -1.266393, 51.624926 ] } },
{ "type": "Feature", "properties": { "site": "Connahs Quay", "operator": "Uniper UK Limited", "type": "Gas", "fuelDetail": "Combined cycle", "capacity": 1380.0, "lowCarbon": "No", "chp": "-", "yearOpen": "1996", "yearStart": 2004.0, "yearEnd": 2018 }, "geometry": { "type": "Point", "coordinates": [ -3.081376, 53.231753 ] } },
{ "type": "Feature", "properties": { "site": "Connahs Quay", "operator": "Uniper UK Limited", "type": "Gas", "fuelDetail": "Combined cycle", "capacity": 1380.0, "lowCarbon": "No", "chp": "-", "yearOpen": "1996", "yearStart": 2019.0, "yearEnd": 2019 }, "geometry": { "type": "Point", "coordinates": [ -3.081376, 53.231753 ] } },
{ "type": "Feature", "properties": { "site": "Littlebrook D", "operator": "RWE Npower Plc", "type": "Oil", "fuelDetail": "-", "capacity": 1370.0, "lowCarbon": "No", "chp": "-", "yearOpen": "1982", "yearStart": 2009.0, "yearEnd": 2015 }, "geometry": { "type": "Point", "coordinates": [ 0.241644, 51.465333 ] } },
{ "type": "Feature", "properties": { "site": "Didcot B", "operator": "RWE Npower Plc", "type": "Gas", "fuelDetail": "Combined cycle", "capacity": 1370.0, "lowCarbon": "No", "chp": "-", "yearOpen": "1998", "yearStart": 2004.0, "yearEnd": 2006 }, "geometry": { "type": "Point", "coordinates": [ -1.266393, 51.624926 ] } },
{ "type": "Feature", "properties": { "site": "South Humber Bank", "operator": "EPUKi", "type": "Gas", "fuelDetail": "Combined cycle", "capacity": 1365.0, "lowCarbon": "No", "chp": "-", "yearOpen": "1996", "yearStart": 2018.0, "yearEnd": 2018 }, "geometry": { "type": "Point", "coordinates": [ -0.1448069, 53.6019 ] } },
{ "type": "Feature", "properties": { "site": "South Humber Bank", "operator": "EPUKi", "type": "Gas", "fuelDetail": "Combined cycle", "capacity": 1365.0, "lowCarbon": "No", "chp": "-", "yearOpen": "1996", "yearStart": 2019.0, "yearEnd": 2019 }, "geometry": { "type": "Point", "coordinates": [ -0.1448069, 53.6019 ] } },
{ "type": "Feature", "properties": { "site": "Grain", "operator": "E.On UK", "type": "Gas", "fuelDetail": "Combined cycle", "capacity": 1365.0, "lowCarbon": "No", "chp": "Yes", "yearOpen": "2010", "yearStart": 2013.0, "yearEnd": 2014 }, "geometry": { "type": "Point", "coordinates": [ 0.715028, 51.445181 ] } },
{ "type": "Feature", "properties": { "site": "Grain CHP", "operator": "E.On UK", "type": "Gas", "fuelDetail": "Combined cycle", "capacity": 1365.0, "lowCarbon": "No", "chp": "Yes", "yearOpen": "2010", "yearStart": 2015.0, "yearEnd": 2016 }, "geometry": { "type": "Point", "coordinates": [ 0.7114, 51.4444 ] } },
{ "type": "Feature", "properties": { "site": "West Burton CCGT", "operator": "EDF Energy", "type": "Gas", "fuelDetail": "Combined cycle", "capacity": 1332.0, "lowCarbon": "No", "chp": "-", "yearOpen": "2012", "yearStart": 2019.0, "yearEnd": 2019 }, "geometry": { "type": "Point", "coordinates": [ -0.7976, 53.3631 ] } },
{ "type": "Feature", "properties": { "site": "West Burton CCGT", "operator": "EDF Energy", "type": "Gas", "fuelDetail": "Combined cycle", "capacity": 1332.0, "lowCarbon": "No", "chp": "-", "yearOpen": "2012", "yearStart": 2015.0, "yearEnd": 2018 }, "geometry": { "type": "Point", "coordinates": [ -0.7976, 53.3631 ] } },
{ "type": "Feature", "properties": { "site": "Grain", "operator": "E.On UK", "type": "Gas", "fuelDetail": "Combined cycle", "capacity": 1320.0, "lowCarbon": "No", "chp": "Yes", "yearOpen": "2010", "yearStart": 2010.0, "yearEnd": 2012 }, "geometry": { "type": "Point", "coordinates": [ 0.715028, 51.445181 ] } },
{ "type": "Feature", "properties": { "site": "South Humber Bank", "operator": "Centrica", "type": "Gas", "fuelDetail": "Combined cycle", "capacity": 1310.0, "lowCarbon": "No", "chp": "-", "yearOpen": "1996", "yearStart": 2014.0, "yearEnd": 2017 }, "geometry": { "type": "Point", "coordinates": [ -0.1448069, 53.6019 ] } },
{ "type": "Feature", "properties": { "site": "Grain", "operator": "E.On UK", "type": "Oil", "fuelDetail": "-", "capacity": 1300.0, "lowCarbon": "No", "chp": "Yes", "yearOpen": "1979", "yearStart": 2007.0, "yearEnd": 2012 }, "geometry": { "type": "Point", "coordinates": [ 0.715028, 51.445181 ] } },
{ "type": "Feature", "properties": { "site": "Drax coal", "operator": "Drax Power Ltd", "type": "Coal", "fuelDetail": "-", "capacity": 1290.0, "lowCarbon": "No", "chp": "-", "yearOpen": "1974", "yearStart": 2018.0, "yearEnd": 2018 }, "geometry": { "type": "Point", "coordinates": [ -0.999021, 53.737546 ] } },
{ "type": "Feature", "properties": { "site": "Drax biomass", "operator": "-", "type": "Biomass", "fuelDetail": "-", "capacity": 1290.0, "lowCarbon": "Yes", "chp": "-", "yearOpen": "1974", "yearStart": 2014.0, "yearEnd": 2015 }, "geometry": { "type": "Point", "coordinates": [ -0.999021, 53.737196 ] } },
{ "type": "Feature", "properties": { "site": "South Humber Bank", "operator": "Centrica", "type": "Gas", "fuelDetail": "Combined cycle", "capacity": 1285.0, "lowCarbon": "No", "chp": "-", "yearOpen": "1996", "yearStart": 2007.0, "yearEnd": 2013 }, "geometry": { "type": "Point", "coordinates": [ -0.1448069, 53.6019 ] } },
{ "type": "Feature", "properties": { "site": "Heysham 2", "operator": "EDF Energy", "type": "Nuclear", "fuelDetail": "-", "capacity": 1254.0, "lowCarbon": "Yes", "chp": "-", "yearOpen": "1988", "yearStart": 2018.0, "yearEnd": 2018 }, "geometry": { "type": "Point", "coordinates": [ -2.916, 54.0285 ] } },
{ "type": "Feature", "properties": { "site": "Torness", "operator": "EDF Energy", "type": "Nuclear", "fuelDetail": "-", "capacity": 1250.0, "lowCarbon": "Yes", "chp": "-", "yearOpen": "1988", "yearStart": 2004.0, "yearEnd": 2018 }, "geometry": { "type": "Point", "coordinates": [ -2.40917, 55.96806 ] } },
{ "type": "Feature", "properties": { "site": "Heysham 2", "operator": "British Energy", "type": "Nuclear", "fuelDetail": "-", "capacity": 1250.0, "lowCarbon": "Yes", "chp": "-", "yearOpen": "1989", "yearStart": 2004.0, "yearEnd": 2005 }, "geometry": { "type": "Point", "coordinates": [ -2.916, 54.0285 ] } },
{ "type": "Feature", "properties": { "site": "VPI Immingham", "operator": "VPI Immingham LLP", "type": "Gas", "fuelDetail": "Combined cycle", "capacity": 1240.0, "lowCarbon": "No", "chp": "Yes", "yearOpen": "2004", "yearStart": 2019.0, "yearEnd": 2019 }, "geometry": { "type": "Point", "coordinates": [ -0.2395, 53.6366 ] } },
{ "type": "Feature", "properties": { "site": "Immingham CHP", "operator": "Immingham CHP LLP", "type": "Gas", "fuelDetail": "Combined heat and power", "capacity": 1240.0, "lowCarbon": "No", "chp": "Yes", "yearOpen": "2004", "yearStart": 2009.0, "yearEnd": 2013 }, "geometry": { "type": "Point", "coordinates": [ -0.2359546, 53.6386926 ] } },
{ "type": "Feature", "properties": { "site": "VPI Immingham", "operator": "VPI Immingham LLP", "type": "Gas", "fuelDetail": "Combined cycle", "capacity": 1240.0, "lowCarbon": "No", "chp": "Yes", "yearOpen": "2004", "yearStart": 2014.0, "yearEnd": 2018 }, "geometry": { "type": "Point", "coordinates": [ -0.2395, 53.6366 ] } },
{ "type": "Feature", "properties": { "site": "Heysham 2", "operator": "British Energy", "type": "Nuclear", "fuelDetail": "-", "capacity": 1240.0, "lowCarbon": "Yes", "chp": "-", "yearOpen": "1988", "yearStart": 2009.0, "yearEnd": 2009 }, "geometry": { "type": "Point", "coordinates": [ -2.916, 54.0285 ] } },
{ "type": "Feature", "properties": { "site": "Heysham 2", "operator": "British Energy", "type": "Nuclear", "fuelDetail": "-", "capacity": 1235.0, "lowCarbon": "Yes", "chp": "-", "yearOpen": "1988", "yearStart": 2008.0, "yearEnd": 2008 }, "geometry": { "type": "Point", "coordinates": [ -2.916, 54.0285 ] } },
{ "type": "Feature", "properties": { "site": "Seabank 1 & 2", "operator": "Seabank Power Limited", "type": "Gas", "fuelDetail": "Combined cycle", "capacity": 1234.0, "lowCarbon": "No", "chp": "-", "yearOpen": "1998", "yearStart": 2019.0, "yearEnd": 2019 }, "geometry": { "type": "Point", "coordinates": [ -2.670236, 51.53928 ] } },
{ "type": "Feature", "properties": { "site": "Seabank 1 & 2", "operator": "Seabank Power Limited", "type": "Gas", "fuelDetail": "Combined cycle", "capacity": 1234.0, "lowCarbon": "No", "chp": "-", "yearOpen": "1998", "yearStart": 2004.0, "yearEnd": 2018 }, "geometry": { "type": "Point", "coordinates": [ -2.670236, 51.53928 ] } },
{ "type": "Feature", "properties": { "site": "Torness", "operator": "British Energy", "type": "Nuclear", "fuelDetail": "-", "capacity": 1230.0, "lowCarbon": "Yes", "chp": "-", "yearOpen": "1988", "yearStart": 2008.0, "yearEnd": 2008 }, "geometry": { "type": "Point", "coordinates": [ -2.40917, 55.96806 ] } },
{ "type": "Feature", "properties": { "site": "Heysham 2", "operator": "British Energy", "type": "Nuclear", "fuelDetail": "-", "capacity": 1230.0, "lowCarbon": "Yes", "chp": "-", "yearOpen": "1988", "yearStart": 2006.0, "yearEnd": 2017 }, "geometry": { "type": "Point", "coordinates": [ -2.916, 54.0285 ] } },
{ "type": "Feature", "properties": { "site": "Hinkley Point B", "operator": "British Energy", "type": "Nuclear", "fuelDetail": "-", "capacity": 1220.0, "lowCarbon": "Yes", "chp": "-", "yearOpen": "1976", "yearStart": 2004.0, "yearEnd": 2006 }, "geometry": { "type": "Point", "coordinates": [ -3.12748, 51.20903 ] } },
{ "type": "Feature", "properties": { "site": "Heysham 2", "operator": "British Energy", "type": "Nuclear", "fuelDetail": "-", "capacity": 1220.0, "lowCarbon": "Yes", "chp": "-", "yearOpen": "1988", "yearStart": 2012.0, "yearEnd": 2014 }, "geometry": { "type": "Point", "coordinates": [ -2.916, 54.0285 ] } },
{ "type": "Feature", "properties": { "site": "Sizewell B", "operator": "EDF Energy", "type": "Nuclear", "fuelDetail": "-", "capacity": 1216.0, "lowCarbon": "Yes", "chp": "-", "yearOpen": "1995", "yearStart": 2018.0, "yearEnd": 2018 }, "geometry": { "type": "Point", "coordinates": [ 1.61972, 52.215 ] } },
{ "type": "Feature", "properties": { "site": "Sizewell B", "operator": "EDF Energy", "type": "Nuclear", "fuelDetail": "-", "capacity": 1216.0, "lowCarbon": "Yes", "chp": "-", "yearOpen": "1995", "yearStart": 2019.0, "yearEnd": 2019 }, "geometry": { "type": "Point", "coordinates": [ 1.61972, 52.215 ] } },
{ "type": "Feature", "properties": { "site": "Hunterston B", "operator": "British Energy", "type": "Nuclear", "fuelDetail": "-", "capacity": 1215.0, "lowCarbon": "Yes", "chp": "-", "yearOpen": "1976", "yearStart": 2006.0, "yearEnd": 2006 }, "geometry": { "type": "Point", "coordinates": [ -4.89009, 55.72209 ] } },
{ "type": "Feature", "properties": { "site": "Hartlepool", "operator": "British Energy", "type": "Nuclear", "fuelDetail": "-", "capacity": 1210.0, "lowCarbon": "Yes", "chp": "-", "yearOpen": "1989", "yearStart": 2004.0, "yearEnd": 2005 }, "geometry": { "type": "Point", "coordinates": [ -1.1801, 54.6341 ] } },
{ "type": "Feature", "properties": { "site": "Heysham 2", "operator": "British Energy", "type": "Nuclear", "fuelDetail": "-", "capacity": 1210.0, "lowCarbon": "Yes", "chp": "-", "yearOpen": "1988", "yearStart": 2011.0, "yearEnd": 2011 }, "geometry": { "type": "Point", "coordinates": [ -2.916, 54.0285 ] } },
{ "type": "Feature", "properties": { "site": "Hartlepool", "operator": "EDF Energy", "type": "Nuclear", "fuelDetail": "-", "capacity": 1207.0, "lowCarbon": "Yes", "chp": "-", "yearOpen": "1984", "yearStart": 2018.0, "yearEnd": 2018 }, "geometry": { "type": "Point", "coordinates": [ -1.1801, 54.6341 ] } },
{ "type": "Feature", "properties": { "site": "Torness", "operator": "British Energy", "type": "Nuclear", "fuelDetail": "-", "capacity": 1205.0, "lowCarbon": "Yes", "chp": "-", "yearOpen": "1988", "yearStart": 2009.0, "yearEnd": 2011 }, "geometry": { "type": "Point", "coordinates": [ -2.40917, 55.96806 ] } },
{ "type": "Feature", "properties": { "site": "Hornsea Project One - Heron & Njord", "operator": "Orsted (formerly Dong Energy)", "type": "Wind", "fuelDetail": "Offshore Wind", "capacity": 1200.0, "lowCarbon": "Yes", "chp": "-", "yearOpen": "-", "yearStart": 2019.0, "yearEnd": 2019 }, "geometry": { "type": "Point", "coordinates": [ 1.42073945581, 53.681541671300003 ] } },
{ "type": "Feature", "properties": { "site": "Saltend", "operator": "Saltend Cogeneration Company Ltd", "type": "Gas", "fuelDetail": "Combined cycle", "capacity": 1200.0, "lowCarbon": "No", "chp": "Yes", "yearOpen": "2000", "yearStart": 2019.0, "yearEnd": 2019 }, "geometry": { "type": "Point", "coordinates": [ -0.236486, 53.74439 ] } },
{ "type": "Feature", "properties": { "site": "Saltend", "operator": "Saltend Cogeneration Company Ltd", "type": "Gas", "fuelDetail": "Combined cycle", "capacity": 1200.0, "lowCarbon": "No", "chp": "Yes", "yearOpen": "2000", "yearStart": 2004.0, "yearEnd": 2018 }, "geometry": { "type": "Point", "coordinates": [ -0.236486, 53.74439 ] } },
{ "type": "Feature", "properties": { "site": "Sizewell B", "operator": "British Energy", "type": "Nuclear", "fuelDetail": "-", "capacity": 1198.0, "lowCarbon": "Yes", "chp": "-", "yearOpen": "1995", "yearStart": 2013.0, "yearEnd": 2017 }, "geometry": { "type": "Point", "coordinates": [ 1.61972, 52.215 ] } },
{ "type": "Feature", "properties": { "site": "Sizewell B", "operator": "British Energy", "type": "Nuclear", "fuelDetail": "-", "capacity": 1196.0, "lowCarbon": "Yes", "chp": "-", "yearOpen": "1995", "yearStart": 2006.0, "yearEnd": 2006 }, "geometry": { "type": "Point", "coordinates": [ 1.61972, 52.215 ] } },
{ "type": "Feature", "properties": { "site": "Sizewell B", "operator": "British Energy", "type": "Nuclear", "fuelDetail": "-", "capacity": 1191.0, "lowCarbon": "Yes", "chp": "-", "yearOpen": "1995", "yearStart": 2011.0, "yearEnd": 2012 }, "geometry": { "type": "Point", "coordinates": [ 1.61972, 52.215 ] } },
{ "type": "Feature", "properties": { "site": "Hunterston B", "operator": "British Energy", "type": "Nuclear", "fuelDetail": "-", "capacity": 1190.0, "lowCarbon": "Yes", "chp": "-", "yearOpen": "1976", "yearStart": 2004.0, "yearEnd": 2005 }, "geometry": { "type": "Point", "coordinates": [ -4.89009, 55.72209 ] } },
{ "type": "Feature", "properties": { "site": "Torness", "operator": "British Energy", "type": "Nuclear", "fuelDetail": "-", "capacity": 1190.0, "lowCarbon": "Yes", "chp": "-", "yearOpen": "1988", "yearStart": 2012.0, "yearEnd": 2012 }, "geometry": { "type": "Point", "coordinates": [ -2.40917, 55.96806 ] } },
{ "type": "Feature", "properties": { "site": "Hartlepool", "operator": "British Energy", "type": "Nuclear", "fuelDetail": "-", "capacity": 1190.0, "lowCarbon": "Yes", "chp": "-", "yearOpen": "1984", "yearStart": 2006.0, "yearEnd": 2011 }, "geometry": { "type": "Point", "coordinates": [ -1.1801, 54.6341 ] } },
{ "type": "Feature", "properties": { "site": "Sizewell B", "operator": "British Energy", "type": "Nuclear", "fuelDetail": "-", "capacity": 1188.0, "lowCarbon": "Yes", "chp": "-", "yearOpen": "1995", "yearStart": 2004.0, "yearEnd": 2010 }, "geometry": { "type": "Point", "coordinates": [ 1.61972, 52.215 ] } },
{ "type": "Feature", "properties": { "site": "Torness", "operator": "British Energy", "type": "Nuclear", "fuelDetail": "-", "capacity": 1185.0, "lowCarbon": "Yes", "chp": "-", "yearOpen": "1988", "yearStart": 2013.0, "yearEnd": 2017 }, "geometry": { "type": "Point", "coordinates": [ -2.40917, 55.96806 ] } },
{ "type": "Feature", "properties": { "site": "Peterhead", "operator": "SSE", "type": "Gas", "fuelDetail": "Combined cycle", "capacity": 1180.0, "lowCarbon": "No", "chp": "-", "yearOpen": "1980", "yearStart": 2010.0, "yearEnd": 2018 }, "geometry": { "type": "Point", "coordinates": [ -1.788229, 57.47774 ] } },
{ "type": "Feature", "properties": { "site": "Hartlepool", "operator": "British Energy", "type": "Nuclear", "fuelDetail": "-", "capacity": 1180.0, "lowCarbon": "Yes", "chp": "-", "yearOpen": "1984", "yearStart": 2012.0, "yearEnd": 2017 }, "geometry": { "type": "Point", "coordinates": [ -1.1801, 54.6341 ] } },
{ "type": "Feature", "properties": { "site": "Peterhead", "operator": "SSE", "type": "Gas", "fuelDetail": "Combined cycle", "capacity": 1180.0, "lowCarbon": "No", "chp": "-", "yearOpen": "1980", "yearStart": 2019.0, "yearEnd": 2019 }, "geometry": { "type": "Point", "coordinates": [ -1.788229, 57.47774 ] } },
{ "type": "Feature", "properties": { "site": "Heysham 1", "operator": "EDF Energy", "type": "Nuclear", "fuelDetail": "-", "capacity": 1179.0, "lowCarbon": "Yes", "chp": "-", "yearOpen": "1984", "yearStart": 2018.0, "yearEnd": 2018 }, "geometry": { "type": "Point", "coordinates": [ -2.916, 54.0285 ] } },
{ "type": "Feature", "properties": { "site": "Heysham 1", "operator": "British Energy", "type": "Nuclear", "fuelDetail": "-", "capacity": 1160.0, "lowCarbon": "Yes", "chp": "-", "yearOpen": "1984", "yearStart": 2006.0, "yearEnd": 2012 }, "geometry": { "type": "Point", "coordinates": [ -2.916, 54.0285 ] } },
{ "type": "Feature", "properties": { "site": "Heysham 1", "operator": "British Energy", "type": "Nuclear", "fuelDetail": "-", "capacity": 1155.0, "lowCarbon": "Yes", "chp": "-", "yearOpen": "1984", "yearStart": 2013.0, "yearEnd": 2017 }, "geometry": { "type": "Point", "coordinates": [ -2.916, 54.0285 ] } },
{ "type": "Feature", "properties": { "site": "Cockenzie", "operator": "Scottish Power", "type": "Coal", "fuelDetail": "-", "capacity": 1152.0, "lowCarbon": "No", "chp": "-", "yearOpen": "1967", "yearStart": 2004.0, "yearEnd": 2012 }, "geometry": { "type": "Point", "coordinates": [ -2.972481, 55.968323 ] } },
{ "type": "Feature", "properties": { "site": "Heysham 1", "operator": "British Energy", "type": "Nuclear", "fuelDetail": "-", "capacity": 1150.0, "lowCarbon": "Yes", "chp": "-", "yearOpen": "1989", "yearStart": 2004.0, "yearEnd": 2005 }, "geometry": { "type": "Point", "coordinates": [ -2.916, 54.0285 ] } },
{ "type": "Feature", "properties": { "site": "Dungeness B", "operator": "EDF Energy", "type": "Nuclear", "fuelDetail": "-", "capacity": 1120.0, "lowCarbon": "Yes", "chp": "-", "yearOpen": "1983", "yearStart": 2018.0, "yearEnd": 2018 }, "geometry": { "type": "Point", "coordinates": [ 0.96389, 50.91389 ] } },
{ "type": "Feature", "properties": { "site": "Dungeness B", "operator": "British Energy", "type": "Nuclear", "fuelDetail": "-", "capacity": 1110.0, "lowCarbon": "Yes", "chp": "-", "yearOpen": "1985", "yearStart": 2004.0, "yearEnd": 2005 }, "geometry": { "type": "Point", "coordinates": [ 0.96389, 50.91389 ] } },
{ "type": "Feature", "properties": { "site": "Dungeness B", "operator": "British Energy", "type": "Nuclear", "fuelDetail": "-", "capacity": 1090.0, "lowCarbon": "Yes", "chp": "-", "yearOpen": "1983", "yearStart": 2006.0, "yearEnd": 2007 }, "geometry": { "type": "Point", "coordinates": [ 0.96389, 50.91389 ] } },
{ "type": "Feature", "properties": { "site": "Hunterston B", "operator": "EDF Energy", "type": "Nuclear", "fuelDetail": "-", "capacity": 1074.0, "lowCarbon": "Yes", "chp": "-", "yearOpen": "1976", "yearStart": 2018.0, "yearEnd": 2018 }, "geometry": { "type": "Point", "coordinates": [ -4.89009, 55.72209 ] } },
{ "type": "Feature", "properties": { "site": "Tilbury B", "operator": "RWE Npower Plc", "type": "Coal", "fuelDetail": "-", "capacity": 1063.0, "lowCarbon": "No", "chp": "-", "yearOpen": "1968", "yearStart": 2008.0, "yearEnd": 2011 }, "geometry": { "type": "Point", "coordinates": [ 0.388119, 51.456521 ] } },
{ "type": "Feature", "properties": { "site": "Hinkley Point B", "operator": "EDF Energy", "type": "Nuclear", "fuelDetail": "-", "capacity": 1061.0, "lowCarbon": "Yes", "chp": "-", "yearOpen": "1976", "yearStart": 2018.0, "yearEnd": 2018 }, "geometry": { "type": "Point", "coordinates": [ -3.12748, 51.20903 ] } },
{ "type": "Feature", "properties": { "site": "Dungeness B", "operator": "British Energy", "type": "Nuclear", "fuelDetail": "-", "capacity": 1050.0, "lowCarbon": "Yes", "chp": "-", "yearOpen": "1983", "yearStart": 2015.0, "yearEnd": 2017 }, "geometry": { "type": "Point", "coordinates": [ 0.96389, 50.91389 ] } },
{ "type": "Feature", "properties": { "site": "Dungeness B", "operator": "British Energy", "type": "Nuclear", "fuelDetail": "-", "capacity": 1040.0, "lowCarbon": "Yes", "chp": "-", "yearOpen": "1983", "yearStart": 2008.0, "yearEnd": 2014 }, "geometry": { "type": "Point", "coordinates": [ 0.96389, 50.91389 ] } },
{ "type": "Feature", "properties": { "site": "Tilbury B", "operator": "RWE Npower Plc", "type": "Coal", "fuelDetail": "-", "capacity": 1038.0, "lowCarbon": "No", "chp": "-", "yearOpen": "1968", "yearStart": 2007.0, "yearEnd": 2007 }, "geometry": { "type": "Point", "coordinates": [ 0.388119, 51.456521 ] } },
{ "type": "Feature", "properties": { "site": "Tilbury B", "operator": "RWE Npower Plc", "type": "Coal", "fuelDetail": "-", "capacity": 1029.0, "lowCarbon": "No", "chp": "-", "yearOpen": "1968", "yearStart": 2005.0, "yearEnd": 2006 }, "geometry": { "type": "Point", "coordinates": [ 0.388119, 51.456521 ] } },
{ "type": "Feature", "properties": { "site": "Tilbury B", "operator": "RWE Innogy Plc", "type": "Coal", "fuelDetail": "-", "capacity": 1020.0, "lowCarbon": "No", "chp": "-", "yearOpen": "1968", "yearStart": 2004.0, "yearEnd": 2004 }, "geometry": { "type": "Point", "coordinates": [ 0.388119, 51.456521 ] } },
{ "type": "Feature", "properties": { "site": "Rugeley", "operator": "ENGIE", "type": "Coal", "fuelDetail": "-", "capacity": 1006.0, "lowCarbon": "No", "chp": "-", "yearOpen": "1972", "yearStart": 2004.0, "yearEnd": 2016 }, "geometry": { "type": "Point", "coordinates": [ -1.916389, 52.756961 ] } },
{ "type": "Feature", "properties": { "site": "Barking", "operator": "Barking Power", "type": "Gas", "fuelDetail": "Combined cycle", "capacity": 1000.0, "lowCarbon": "No", "chp": "-", "yearOpen": "1994", "yearStart": 2004.0, "yearEnd": 2014 }, "geometry": { "type": "Point", "coordinates": [ 0.111968, 51.5211946 ] } },
{ "type": "Feature", "properties": { "site": "Wylfa", "operator": "Magnox Ltd", "type": "Nuclear", "fuelDetail": "-", "capacity": 980.0, "lowCarbon": "Yes", "chp": "-", "yearOpen": "1971", "yearStart": 2004.0, "yearEnd": 2011 }, "geometry": { "type": "Point", "coordinates": [ -4.48044, 53.41565 ] } },
{ "type": "Feature", "properties": { "site": "Ferrybridge C", "operator": "SSE Toddleburn Limited", "type": "Coal", "fuelDetail": "-", "capacity": 980.0, "lowCarbon": "No", "chp": "-", "yearOpen": "1966", "yearStart": 2014.0, "yearEnd": 2015 }, "geometry": { "type": "Point", "coordinates": [ -1.280574, 53.715638 ] } },
{ "type": "Feature", "properties": { "site": "Ironbridge", "operator": "E.On UK", "type": "Coal", "fuelDetail": "-", "capacity": 970.0, "lowCarbon": "No", "chp": "-", "yearOpen": "1970", "yearStart": 2004.0, "yearEnd": 2010 }, "geometry": { "type": "Point", "coordinates": [ -2.512676, 52.632529 ] } },
{ "type": "Feature", "properties": { "site": "Fawley", "operator": "RWE Npower Plc", "type": "Oil", "fuelDetail": "-", "capacity": 968.0, "lowCarbon": "No", "chp": "-", "yearOpen": "1969", "yearStart": 2007.0, "yearEnd": 2012 }, "geometry": { "type": "Point", "coordinates": [ -1.379604, 50.848496 ] } },
{ "type": "Feature", "properties": { "site": "Hunterston B", "operator": "British Energy", "type": "Nuclear", "fuelDetail": "-", "capacity": 965.0, "lowCarbon": "Yes", "chp": "-", "yearOpen": "1976", "yearStart": 2015.0, "yearEnd": 2017 }, "geometry": { "type": "Point", "coordinates": [ -4.89009, 55.72209 ] } },
{ "type": "Feature", "properties": { "site": "Hunterston B", "operator": "British Energy", "type": "Nuclear", "fuelDetail": "-", "capacity": 960.0, "lowCarbon": "Yes", "chp": "-", "yearOpen": "1976", "yearStart": 2014.0, "yearEnd": 2014 }, "geometry": { "type": "Point", "coordinates": [ -4.89009, 55.72209 ] } },
{ "type": "Feature", "properties": { "site": "Hinkley Point B", "operator": "British Energy", "type": "Nuclear", "fuelDetail": "-", "capacity": 955.0, "lowCarbon": "Yes", "chp": "-", "yearOpen": "1976", "yearStart": 2015.0, "yearEnd": 2017 }, "geometry": { "type": "Point", "coordinates": [ -3.12748, 51.20903 ] } },
{ "type": "Feature", "properties": { "site": "Hinkley Point B", "operator": "British Energy", "type": "Nuclear", "fuelDetail": "-", "capacity": 945.0, "lowCarbon": "Yes", "chp": "-", "yearOpen": "1976", "yearStart": 2014.0, "yearEnd": 2014 }, "geometry": { "type": "Point", "coordinates": [ -3.12748, 51.20903 ] } },
{ "type": "Feature", "properties": { "site": "Ironbridge", "operator": "E.On UK", "type": "Coal", "fuelDetail": "-", "capacity": 940.0, "lowCarbon": "No", "chp": "-", "yearOpen": "1970", "yearStart": 2011.0, "yearEnd": 2012 }, "geometry": { "type": "Point", "coordinates": [ -2.512676, 52.632529 ] } },
{ "type": "Feature", "properties": { "site": "Marchwood", "operator": "Marchwood Power Limited", "type": "Gas", "fuelDetail": "Combined cycle", "capacity": 920.0, "lowCarbon": "No", "chp": "-", "yearOpen": "2009", "yearStart": 2019.0, "yearEnd": 2019 }, "geometry": { "type": "Point", "coordinates": [ -1.437428, 50.89847 ] } },
{ "type": "Feature", "properties": { "site": "Marchwood", "operator": "Marchwood Power Limited", "type": "Gas", "fuelDetail": "Combined cycle", "capacity": 920.0, "lowCarbon": "No", "chp": "-", "yearOpen": "2009", "yearStart": 2018.0, "yearEnd": 2018 }, "geometry": { "type": "Point", "coordinates": [ -1.437428, 50.89847 ] } },
{ "type": "Feature", "properties": { "site": "Carrington", "operator": "ESB", "type": "Gas", "fuelDetail": "Combined cycle", "capacity": 910.0, "lowCarbon": "No", "chp": "-", "yearOpen": "2016", "yearStart": 2019.0, "yearEnd": 2019 }, "geometry": { "type": "Point", "coordinates": [ -2.4095087, 53.4365054 ] } },
{ "type": "Feature", "properties": { "site": "Carrington", "operator": "ESB", "type": "Gas", "fuelDetail": "Combined cycle", "capacity": 910.0, "lowCarbon": "No", "chp": "-", "yearOpen": "2016", "yearStart": 2018.0, "yearEnd": 2018 }, "geometry": { "type": "Point", "coordinates": [ -2.4095087, 53.4365054 ] } },
{ "type": "Feature", "properties": { "site": "Langage", "operator": "EPUKi", "type": "Gas", "fuelDetail": "Combined cycle", "capacity": 905.0, "lowCarbon": "No", "chp": "-", "yearOpen": "2010", "yearStart": 2010.0, "yearEnd": 2018 }, "geometry": { "type": "Point", "coordinates": [ -4.011345, 50.38806 ] } },
{ "type": "Feature", "properties": { "site": "Langage", "operator": "EPUKi", "type": "Gas", "fuelDetail": "Combined cycle", "capacity": 905.0, "lowCarbon": "No", "chp": "-", "yearOpen": "2010", "yearStart": 2019.0, "yearEnd": 2019 }, "geometry": { "type": "Point", "coordinates": [ -4.011345, 50.38806 ] } },
{ "type": "Feature", "properties": { "site": "Spalding", "operator": "Spalding Energy Company Ltd", "type": "Gas", "fuelDetail": "Combined cycle", "capacity": 903.0, "lowCarbon": "No", "chp": "-", "yearOpen": "2004", "yearStart": 2004.0, "yearEnd": 2006 }, "geometry": { "type": "Point", "coordinates": [ -0.1328254, 52.80724 ] } },
{ "type": "Feature", "properties": { "site": "Ironbridge", "operator": "E.On UK", "type": "Biomass", "fuelDetail": "-", "capacity": 900.0, "lowCarbon": "Yes", "chp": "-", "yearOpen": "1970", "yearStart": 2013.0, "yearEnd": 2013 }, "geometry": { "type": "Point", "coordinates": [ -2.512676, 52.632529 ] } },
{ "type": "Feature", "properties": { "site": "Killingholme B", "operator": "E.On UK", "type": "Gas", "fuelDetail": "Combined cycle", "capacity": 900.0, "lowCarbon": "No", "chp": "-", "yearOpen": "1993", "yearStart": 2005.0, "yearEnd": 2016 }, "geometry": { "type": "Point", "coordinates": [ -0.255611, 53.654356 ] } },
{ "type": "Feature", "properties": { "site": "Carrington", "operator": "Carrington Power", "type": "Gas", "fuelDetail": "Combined cycle", "capacity": 900.0, "lowCarbon": "No", "chp": "-", "yearOpen": "2016", "yearStart": 2016.0, "yearEnd": 2017 }, "geometry": { "type": "Point", "coordinates": [ -2.4095087, 53.4365054 ] } },
{ "type": "Feature", "properties": { "site": "Marchwood", "operator": "Marchwood Power Limited", "type": "Gas", "fuelDetail": "Combined cycle", "capacity": 898.0, "lowCarbon": "No", "chp": "-", "yearOpen": "2009", "yearStart": 2016.0, "yearEnd": 2016 }, "geometry": { "type": "Point", "coordinates": [ -1.437428, 50.89847 ] } },
{ "type": "Feature", "properties": { "site": "Hunterston B", "operator": "British Energy", "type": "Nuclear", "fuelDetail": "-", "capacity": 890.0, "lowCarbon": "Yes", "chp": "-", "yearOpen": "1976", "yearStart": 2011.0, "yearEnd": 2013 }, "geometry": { "type": "Point", "coordinates": [ -4.89009, 55.72209 ] } },
{ "type": "Feature", "properties": { "site": "Spalding", "operator": "Intergen", "type": "Gas", "fuelDetail": "Combined cycle", "capacity": 880.0, "lowCarbon": "No", "chp": "-", "yearOpen": "2004", "yearStart": 2010.0, "yearEnd": 2018 }, "geometry": { "type": "Point", "coordinates": [ -0.1328254, 52.80724 ] } },
{ "type": "Feature", "properties": { "site": "Hinkley Point B", "operator": "British Energy", "type": "Nuclear", "fuelDetail": "-", "capacity": 880.0, "lowCarbon": "Yes", "chp": "-", "yearOpen": "1976", "yearStart": 2013.0, "yearEnd": 2013 }, "geometry": { "type": "Point", "coordinates": [ -3.12748, 51.20903 ] } },
{ "type": "Feature", "properties": { "site": "Spalding", "operator": "Intergen", "type": "Gas", "fuelDetail": "Combined cycle", "capacity": 880.0, "lowCarbon": "No", "chp": "-", "yearOpen": "2004", "yearStart": 2019.0, "yearEnd": 2019 }, "geometry": { "type": "Point", "coordinates": [ -0.1328254, 52.80724 ] } },
{ "type": "Feature", "properties": { "site": "Hinkley Point B", "operator": "British Energy", "type": "Nuclear", "fuelDetail": "-", "capacity": 870.0, "lowCarbon": "Yes", "chp": "-", "yearOpen": "1976", "yearStart": 2011.0, "yearEnd": 2012 }, "geometry": { "type": "Point", "coordinates": [ -3.12748, 51.20903 ] } },
{ "type": "Feature", "properties": { "site": "Hinkley Point B", "operator": "British Energy", "type": "Nuclear", "fuelDetail": "-", "capacity": 860.0, "lowCarbon": "Yes", "chp": "-", "yearOpen": "1976", "yearStart": 2007.0, "yearEnd": 2010 }, "geometry": { "type": "Point", "coordinates": [ -3.12748, 51.20903 ] } },
{ "type": "Feature", "properties": { "site": "Triton Knoll ", "operator": "Innogy", "type": "Wind", "fuelDetail": "Offshore Wind", "capacity": 860.0, "lowCarbon": "Yes", "chp": "-", "yearOpen": "-", "yearStart": 2019.0, "yearEnd": 2019 }, "geometry": { "type": "Point", "coordinates": [ 0.861639041752, 53.212272302700008 ] } },
{ "type": "Feature", "properties": { "site": "Hunterston B", "operator": "British Energy", "type": "Nuclear", "fuelDetail": "-", "capacity": 860.0, "lowCarbon": "Yes", "chp": "-", "yearOpen": "1976", "yearStart": 2009.0, "yearEnd": 2010 }, "geometry": { "type": "Point", "coordinates": [ -4.89009, 55.72209 ] } },
{ "type": "Feature", "properties": { "site": "Spalding", "operator": "Spalding Energy Company Ltd", "type": "Gas", "fuelDetail": "Combined cycle", "capacity": 860.0, "lowCarbon": "No", "chp": "-", "yearOpen": "2004", "yearStart": 2007.0, "yearEnd": 2009 }, "geometry": { "type": "Point", "coordinates": [ -0.1328254, 52.80724 ] } },
{ "type": "Feature", "properties": { "site": "Severn Power", "operator": "Calon energy", "type": "Gas", "fuelDetail": "Combined cycle", "capacity": 850.0, "lowCarbon": "No", "chp": "-", "yearOpen": "2010", "yearStart": 2015.0, "yearEnd": 2018 }, "geometry": { "type": "Point", "coordinates": [ -2.974059, 51.54801 ] } },
{ "type": "Feature", "properties": { "site": "Severn Power", "operator": "Calon energy", "type": "Gas", "fuelDetail": "Combined cycle", "capacity": 850.0, "lowCarbon": "No", "chp": "-", "yearOpen": "2010", "yearStart": 2019.0, "yearEnd": 2019 }, "geometry": { "type": "Point", "coordinates": [ -2.974059, 51.54801 ] } },
{ "type": "Feature", "properties": { "site": "Severn", "operator": "Dong Energy", "type": "Gas", "fuelDetail": "Combined cycle", "capacity": 848.0, "lowCarbon": "No", "chp": "-", "yearOpen": "2010", "yearStart": 2010.0, "yearEnd": 2014 }, "geometry": { "type": "Point", "coordinates": [ -2.970539, 51.549071 ] } },
{ "type": "Feature", "properties": { "site": "Marchwood", "operator": "Marchwood Power Limited", "type": "Gas", "fuelDetail": "Combined cycle", "capacity": 842.0, "lowCarbon": "No", "chp": "-", "yearOpen": "2009", "yearStart": 2009.0, "yearEnd": 2017 }, "geometry": { "type": "Point", "coordinates": [ -1.437428, 50.89847 ] } },
{ "type": "Feature", "properties": { "site": "Hunterston B", "operator": "British Energy", "type": "Nuclear", "fuelDetail": "-", "capacity": 840.0, "lowCarbon": "Yes", "chp": "-", "yearOpen": "1976", "yearStart": 2007.0, "yearEnd": 2007 }, "geometry": { "type": "Point", "coordinates": [ -4.89009, 55.72209 ] } },
{ "type": "Feature", "properties": { "site": "Keadby 2", "operator": "SSE", "type": "Gas", "fuelDetail": "Combined cycle", "capacity": 840.0, "lowCarbon": "No", "chp": "-", "yearOpen": "2022", "yearStart": 2019.0, "yearEnd": 2019 }, "geometry": { "type": "Point", "coordinates": [ -0.756291, 53.595855 ] } },
{ "type": "Feature", "properties": { "site": "Hinkley Point B", "operator": "British Energy", "type": "Nuclear", "fuelDetail": "-", "capacity": 840.0, "lowCarbon": "Yes", "chp": "-", "yearOpen": "1976", "yearStart": 2009.0, "yearEnd": 2009 }, "geometry": { "type": "Point", "coordinates": [ -3.12748, 51.20903 ] } },
{ "type": "Feature", "properties": { "site": "Hinkley Point B", "operator": "British Energy", "type": "Nuclear", "fuelDetail": "-", "capacity": 820.0, "lowCarbon": "Yes", "chp": "-", "yearOpen": "1976", "yearStart": 2008.0, "yearEnd": 2008 }, "geometry": { "type": "Point", "coordinates": [ -3.12748, 51.20903 ] } },
{ "type": "Feature", "properties": { "site": "Hunterston B", "operator": "British Energy", "type": "Nuclear", "fuelDetail": "-", "capacity": 820.0, "lowCarbon": "Yes", "chp": "-", "yearOpen": "1976", "yearStart": 2008.0, "yearEnd": 2008 }, "geometry": { "type": "Point", "coordinates": [ -4.89009, 55.72209 ] } },
{ "type": "Feature", "properties": { "site": "Sutton Bridge", "operator": "Calon energy", "type": "Gas", "fuelDetail": "Combined cycle", "capacity": 819.0, "lowCarbon": "No", "chp": "-", "yearOpen": "1999", "yearStart": 2019.0, "yearEnd": 2019 }, "geometry": { "type": "Point", "coordinates": [ 0.1920095, 52.75699 ] } },
{ "type": "Feature", "properties": { "site": "Sutton Bridge", "operator": "Calon energy", "type": "Gas", "fuelDetail": "Combined cycle", "capacity": 819.0, "lowCarbon": "No", "chp": "-", "yearOpen": "1999", "yearStart": 2011.0, "yearEnd": 2018 }, "geometry": { "type": "Point", "coordinates": [ 0.1920095, 52.75699 ] } },
{ "type": "Feature", "properties": { "site": "Rocksavage", "operator": "Intergen", "type": "Gas", "fuelDetail": "Combined cycle", "capacity": 810.0, "lowCarbon": "No", "chp": "-", "yearOpen": "1998", "yearStart": 2019.0, "yearEnd": 2019 }, "geometry": { "type": "Point", "coordinates": [ -2.723685, 53.31519 ] } },
{ "type": "Feature", "properties": { "site": "Rocksavage", "operator": "Intergen", "type": "Gas", "fuelDetail": "Combined cycle", "capacity": 810.0, "lowCarbon": "No", "chp": "-", "yearOpen": "1998", "yearStart": 2010.0, "yearEnd": 2018 }, "geometry": { "type": "Point", "coordinates": [ -2.723685, 53.31519 ] } },
{ "type": "Feature", "properties": { "site": "Damhead Creek", "operator": "Scottish power", "type": "Gas", "fuelDetail": "Combined cycle", "capacity": 805.0, "lowCarbon": "No", "chp": "-", "yearOpen": "2000", "yearStart": 2014.0, "yearEnd": 2018 }, "geometry": { "type": "Point", "coordinates": [ 0.601565, 51.425088 ] } },
{ "type": "Feature", "properties": { "site": "Damhead Creek", "operator": "Scottish power", "type": "Gas", "fuelDetail": "Combined cycle", "capacity": 805.0, "lowCarbon": "No", "chp": "-", "yearOpen": "2000", "yearStart": 2019.0, "yearEnd": 2019 }, "geometry": { "type": "Point", "coordinates": [ 0.601565, 51.425088 ] } },
{ "type": "Feature", "properties": { "site": "Sutton Bridge", "operator": "EDF Energy", "type": "Gas", "fuelDetail": "Combined cycle", "capacity": 803.0, "lowCarbon": "No", "chp": "-", "yearOpen": "1999", "yearStart": 2004.0, "yearEnd": 2009 }, "geometry": { "type": "Point", "coordinates": [ 0.1920095, 52.75699 ] } },
{ "type": "Feature", "properties": { "site": "Coryton", "operator": "Intergen", "type": "Gas", "fuelDetail": "Combined cycle", "capacity": 800.0, "lowCarbon": "No", "chp": "-", "yearOpen": "2001", "yearStart": 2010.0, "yearEnd": 2018 }, "geometry": { "type": "Point", "coordinates": [ 0.506892, 51.512222 ] } },
{ "type": "Feature", "properties": { "site": "Sutton Bridge", "operator": "EDF Energy", "type": "Gas", "fuelDetail": "Combined cycle", "capacity": 800.0, "lowCarbon": "No", "chp": "-", "yearOpen": "1999", "yearStart": 2005.0, "yearEnd": 2010 }, "geometry": { "type": "Point", "coordinates": [ 0.1920095, 52.75699 ] } },
{ "type": "Feature", "properties": { "site": "Coryton", "operator": "Intergen", "type": "Gas", "fuelDetail": "Combined cycle", "capacity": 800.0, "lowCarbon": "No", "chp": "-", "yearOpen": "2001", "yearStart": 2019.0, "yearEnd": 2019 }, "geometry": { "type": "Point", "coordinates": [ 0.506892, 51.512222 ] } },
{ "type": "Feature", "properties": { "site": "Damhead Creek", "operator": "Scottish Power", "type": "Gas", "fuelDetail": "Combined cycle", "capacity": 800.0, "lowCarbon": "No", "chp": "-", "yearOpen": "2000", "yearStart": 2009.0, "yearEnd": 2013 }, "geometry": { "type": "Point", "coordinates": [ 0.601565, 51.425088 ] } },
{ "type": "Feature", "properties": { "site": "Damhead Creek", "operator": "Scottish Power", "type": "Gas", "fuelDetail": "Combined cycle", "capacity": 792.0, "lowCarbon": "No", "chp": "-", "yearOpen": "2000", "yearStart": 2004.0, "yearEnd": 2008 }, "geometry": { "type": "Point", "coordinates": [ 0.601565, 51.425088 ] } },
{ "type": "Feature", "properties": { "site": "South Humber Bank 1", "operator": "Centrica", "type": "Gas", "fuelDetail": "Combined cycle", "capacity": 785.0, "lowCarbon": "No", "chp": "-", "yearOpen": "1996", "yearStart": 2004.0, "yearEnd": 2006 }, "geometry": { "type": "Point", "coordinates": [ -0.1466987, 53.6014729 ] } },
{ "type": "Feature", "properties": { "site": "Medway", "operator": "SSE", "type": "Gas", "fuelDetail": "Combined cycle", "capacity": 755.0, "lowCarbon": "No", "chp": "-", "yearOpen": "1995", "yearStart": 2018.0, "yearEnd": 2018 }, "geometry": { "type": "Point", "coordinates": [ 0.6899496, 51.4397 ] } },
{ "type": "Feature", "properties": { "site": "Keadby", "operator": "Scottish and Southern", "type": "Gas", "fuelDetail": "Combined cycle", "capacity": 755.0, "lowCarbon": "No", "chp": "-", "yearOpen": "1994", "yearStart": 2016.0, "yearEnd": 2016 }, "geometry": { "type": "Point", "coordinates": [ -0.7494284, 53.59465 ] } },
{ "type": "Feature", "properties": { "site": "Medway", "operator": "SSE", "type": "Gas", "fuelDetail": "Combined cycle", "capacity": 755.0, "lowCarbon": "No", "chp": "-", "yearOpen": "1995", "yearStart": 2019.0, "yearEnd": 2019 }, "geometry": { "type": "Point", "coordinates": [ 0.6899496, 51.4397 ] } },
{ "type": "Feature", "properties": { "site": "Coryton", "operator": "Coryton Energy Company Ltd", "type": "Gas", "fuelDetail": "Combined cycle", "capacity": 753.0, "lowCarbon": "No", "chp": "-", "yearOpen": "2001", "yearStart": 2004.0, "yearEnd": 2006 }, "geometry": { "type": "Point", "coordinates": [ 0.506892, 51.512222 ] } },
{ "type": "Feature", "properties": { "site": "Rocksavage", "operator": "Rocksavage Power Co. Ltd", "type": "Gas", "fuelDetail": "Combined cycle", "capacity": 750.0, "lowCarbon": "No", "chp": "-", "yearOpen": "1997", "yearStart": 2004.0, "yearEnd": 2006 }, "geometry": { "type": "Point", "coordinates": [ -2.723685, 53.31519 ] } },
{ "type": "Feature", "properties": { "site": "Tilbury B", "operator": "RWE Npower Plc", "type": "Biomass", "fuelDetail": "-", "capacity": 750.0, "lowCarbon": "Yes", "chp": "-", "yearOpen": "1968", "yearStart": 2012.0, "yearEnd": 2013 }, "geometry": { "type": "Point", "coordinates": [ 0.388119, 51.456521 ] } },
{ "type": "Feature", "properties": { "site": "Little Barford", "operator": "RWE Generation UK Plc", "type": "Gas", "fuelDetail": "Combined cycle", "capacity": 749.0, "lowCarbon": "No", "chp": "-", "yearOpen": "1995", "yearStart": 2016.0, "yearEnd": 2016 }, "geometry": { "type": "Point", "coordinates": [ -0.267805, 52.20465 ] } },
{ "type": "Feature", "properties": { "site": "Keadby", "operator": "Scottish and Southern", "type": "Gas", "fuelDetail": "-", "capacity": 749.0, "lowCarbon": "No", "chp": "-", "yearOpen": "1994", "yearStart": 2008.0, "yearEnd": 2011 }, "geometry": { "type": "Point", "coordinates": [ -0.7494284, 53.59465 ] } },
{ "type": "Feature", "properties": { "site": "Rocksavage", "operator": "Rocksavage Power Co. Ltd", "type": "Gas", "fuelDetail": "Combined cycle", "capacity": 748.0, "lowCarbon": "No", "chp": "-", "yearOpen": "1998", "yearStart": 2007.0, "yearEnd": 2009 }, "geometry": { "type": "Point", "coordinates": [ -2.723685, 53.31519 ] } },
{ "type": "Feature", "properties": { "site": "Keadby", "operator": "Scottish & Southern Energy plc", "type": "Gas", "fuelDetail": "Combined cycle", "capacity": 745.0, "lowCarbon": "No", "chp": "-", "yearOpen": "1994", "yearStart": 2004.0, "yearEnd": 2007 }, "geometry": { "type": "Point", "coordinates": [ -0.7494284, 53.59465 ] } },
{ "type": "Feature", "properties": { "site": "Immingham CHP", "operator": "Immingham CHP LLP", "type": "Gas", "fuelDetail": "Combined heat and power", "capacity": 741.0, "lowCarbon": "No", "chp": "Yes", "yearOpen": "2004", "yearStart": 2006.0, "yearEnd": 2008 }, "geometry": { "type": "Point", "coordinates": [ -0.2359546, 53.6386926 ] } },
{ "type": "Feature", "properties": { "site": "Little Barford", "operator": "RWE Generation SE", "type": "Gas", "fuelDetail": "Combined cycle", "capacity": 740.0, "lowCarbon": "No", "chp": "-", "yearOpen": "1995", "yearStart": 2018.0, "yearEnd": 2018 }, "geometry": { "type": "Point", "coordinates": [ -0.267805, 52.20465 ] } },
{ "type": "Feature", "properties": { "site": "Little Barford", "operator": "RWE Generation SE", "type": "Gas", "fuelDetail": "Combined cycle", "capacity": 740.0, "lowCarbon": "No", "chp": "-", "yearOpen": "1995", "yearStart": 2019.0, "yearEnd": 2019 }, "geometry": { "type": "Point", "coordinates": [ -0.267805, 52.20465 ] } },
{ "type": "Feature", "properties": { "site": "Medway", "operator": "Scottish and Southern", "type": "Gas", "fuelDetail": "Combined cycle", "capacity": 735.0, "lowCarbon": "No", "chp": "-", "yearOpen": "1995", "yearStart": 2016.0, "yearEnd": 2016 }, "geometry": { "type": "Point", "coordinates": [ 0.6899496, 51.4397 ] } },
{ "type": "Feature", "properties": { "site": "Keadby", "operator": "SSE", "type": "Gas", "fuelDetail": "Combined cycle", "capacity": 735.0, "lowCarbon": "No", "chp": "-", "yearOpen": "1994", "yearStart": 2019.0, "yearEnd": 2019 }, "geometry": { "type": "Point", "coordinates": [ -0.7494284, 53.59465 ] } },
{ "type": "Feature", "properties": { "site": "Keadby", "operator": "SSE", "type": "Gas", "fuelDetail": "Combined cycle", "capacity": 735.0, "lowCarbon": "No", "chp": "-", "yearOpen": "1994", "yearStart": 2018.0, "yearEnd": 2018 }, "geometry": { "type": "Point", "coordinates": [ -0.7494284, 53.59465 ] } },
{ "type": "Feature", "properties": { "site": "Immingham CHP", "operator": "Immingham CHP LLP", "type": "Gas", "fuelDetail": "Combined heat and power", "capacity": 734.0, "lowCarbon": "No", "chp": "Yes", "yearOpen": "2004", "yearStart": 2004.0, "yearEnd": 2005 }, "geometry": { "type": "Point", "coordinates": [ -0.2359546, 53.6386926 ] } },
{ "type": "Feature", "properties": { "site": "Coryton", "operator": "Coryton Energy Company Ltd", "type": "Gas", "fuelDetail": "Combined cycle", "capacity": 732.0, "lowCarbon": "No", "chp": "-", "yearOpen": "2001", "yearStart": 2007.0, "yearEnd": 2009 }, "geometry": { "type": "Point", "coordinates": [ 0.506892, 51.512222 ] } },
{ "type": "Feature", "properties": { "site": "Little Barford", "operator": "RWE Npower Plc", "type": "Gas", "fuelDetail": "Combined cycle", "capacity": 720.0, "lowCarbon": "No", "chp": "-", "yearOpen": "1995", "yearStart": 2013.0, "yearEnd": 2017 }, "geometry": { "type": "Point", "coordinates": [ -0.267805, 52.20465 ] } },
{ "type": "Feature", "properties": { "site": "Rye House", "operator": "Scottish power", "type": "Gas", "fuelDetail": "Combined cycle", "capacity": 715.0, "lowCarbon": "No", "chp": "-", "yearOpen": "1993", "yearStart": 2019.0, "yearEnd": 2019 }, "geometry": { "type": "Point", "coordinates": [ 0.009317565, 51.76272 ] } },
{ "type": "Feature", "properties": { "site": "Rye House", "operator": "Scottish power", "type": "Gas", "fuelDetail": "Combined cycle", "capacity": 715.0, "lowCarbon": "No", "chp": "-", "yearOpen": "1993", "yearStart": 2004.0, "yearEnd": 2018 }, "geometry": { "type": "Point", "coordinates": [ 0.009317565, 51.76272 ] } },
{ "type": "Feature", "properties": { "site": "Little Barford", "operator": "RWE Npower Plc", "type": "Gas", "fuelDetail": "Combined cycle", "capacity": 714.0, "lowCarbon": "No", "chp": "-", "yearOpen": "1995", "yearStart": 2012.0, "yearEnd": 2012 }, "geometry": { "type": "Point", "coordinates": [ -0.267805, 52.20465 ] } },
{ "type": "Feature", "properties": { "site": "East Anglia 1 (EA 1)", "operator": "Scottish Power Renewables", "type": "Wind", "fuelDetail": "Offshore Wind", "capacity": 714.0, "lowCarbon": "Yes", "chp": "-", "yearOpen": "-", "yearStart": 2019.0, "yearEnd": 2019 }, "geometry": { "type": "Point", "coordinates": [ 2.17089959655, 52.137439075600007 ] } },
{ "type": "Feature", "properties": { "site": "Keadby", "operator": "Scottish and Southern", "type": "Gas", "fuelDetail": "Combined cycle", "capacity": 710.0, "lowCarbon": "No", "chp": "-", "yearOpen": "1994", "yearStart": 2012.0, "yearEnd": 2017 }, "geometry": { "type": "Point", "coordinates": [ -0.7494284, 53.59465 ] } },
{ "type": "Feature", "properties": { "site": "Medway", "operator": "Scottish and Southern", "type": "Gas", "fuelDetail": "Combined cycle", "capacity": 700.0, "lowCarbon": "No", "chp": "-", "yearOpen": "1995", "yearStart": 2013.0, "yearEnd": 2017 }, "geometry": { "type": "Point", "coordinates": [ 0.6899496, 51.4397 ] } },
{ "type": "Feature", "properties": { "site": "Medway", "operator": "Scottish and Southern", "type": "Gas", "fuelDetail": "Combined cycle", "capacity": 688.0, "lowCarbon": "No", "chp": "-", "yearOpen": "1995", "yearStart": 2004.0, "yearEnd": 2012 }, "geometry": { "type": "Point", "coordinates": [ 0.6899496, 51.4397 ] } },
{ "type": "Feature", "properties": { "site": "Littlebrook D", "operator": "RWE Innogy Plc", "type": "Oil", "fuelDetail": "-", "capacity": 685.0, "lowCarbon": "No", "chp": "-", "yearOpen": "1982", "yearStart": 2004.0, "yearEnd": 2004 }, "geometry": { "type": "Point", "coordinates": [ 0.241644, 51.465333 ] } },
{ "type": "Feature", "properties": { "site": "Killingholme A", "operator": "Centrica", "type": "Gas", "fuelDetail": "Combined cycle", "capacity": 665.0, "lowCarbon": "No", "chp": "-", "yearOpen": "1994", "yearStart": 2007.0, "yearEnd": 2015 }, "geometry": { "type": "Point", "coordinates": [ -0.255604, 53.659153 ] } },
{ "type": "Feature", "properties": { "site": "Little Barford", "operator": "RWE Npower Plc", "type": "Gas", "fuelDetail": "Combined cycle", "capacity": 665.0, "lowCarbon": "No", "chp": "-", "yearOpen": "1995", "yearStart": 2005.0, "yearEnd": 2011 }, "geometry": { "type": "Point", "coordinates": [ -0.267805, 52.20465 ] } },
{ "type": "Feature", "properties": { "site": "Walney 3", "operator": "Orsted (formerly Dong Energy)", "type": "Wind", "fuelDetail": "Offshore Wind", "capacity": 660.0, "lowCarbon": "Yes", "chp": "-", "yearOpen": "2018", "yearStart": 2018.0, "yearEnd": 2019 }, "geometry": { "type": "Point", "coordinates": [ -3.74001069509, 54.089994664799995 ] } },
{ "type": "Feature", "properties": { "site": "Killingholme A", "operator": "Centrica", "type": "Gas", "fuelDetail": "Combined cycle", "capacity": 660.0, "lowCarbon": "No", "chp": "-", "yearOpen": "1994", "yearStart": 2006.0, "yearEnd": 2006 }, "geometry": { "type": "Point", "coordinates": [ -0.255604, 53.659153 ] } },
{ "type": "Feature", "properties": { "site": "Little Barford", "operator": "RWE Innogy Plc", "type": "Gas", "fuelDetail": "Combined cycle", "capacity": 655.0, "lowCarbon": "No", "chp": "-", "yearOpen": "1995", "yearStart": 2004.0, "yearEnd": 2004 }, "geometry": { "type": "Point", "coordinates": [ -0.267805, 52.20465 ] } },
{ "type": "Feature", "properties": { "site": "Grain", "operator": "E.On UK", "type": "Oil", "fuelDetail": "-", "capacity": 650.0, "lowCarbon": "No", "chp": "Yes", "yearOpen": "1979", "yearStart": 2004.0, "yearEnd": 2006 }, "geometry": { "type": "Point", "coordinates": [ 0.715028, 51.445181 ] } },
{ "type": "Feature", "properties": { "site": "Killingholme A", "operator": "Centrica", "type": "Gas", "fuelDetail": "Combined cycle", "capacity": 650.0, "lowCarbon": "No", "chp": "-", "yearOpen": "1994", "yearStart": 2004.0, "yearEnd": 2005 }, "geometry": { "type": "Point", "coordinates": [ -0.255604, 53.659153 ] } },
{ "type": "Feature", "properties": { "site": "Drax biomass", "operator": "-", "type": "Biomass", "fuelDetail": "-", "capacity": 645.0, "lowCarbon": "Yes", "chp": "-", "yearOpen": "1974", "yearStart": 2013.0, "yearEnd": 2013 }, "geometry": { "type": "Point", "coordinates": [ -0.999021, 53.737196 ] } },
{ "type": "Feature", "properties": { "site": "London Array Phase 1", "operator": "Siemens Gamesa Renewable Energy", "type": "Wind", "fuelDetail": "Offshore Wind", "capacity": 630.0, "lowCarbon": "Yes", "chp": "-", "yearOpen": "2013", "yearStart": 2013.0, "yearEnd": 2019 }, "geometry": { "type": "Point", "coordinates": [ 1.49583159563, 51.621679308900006 ] } },
{ "type": "Feature", "properties": { "site": "Ballylumford C", "operator": "AES", "type": "Gas", "fuelDetail": "Combined cycle", "capacity": 616.0, "lowCarbon": "No", "chp": "-", "yearOpen": "2003", "yearStart": 2019.0, "yearEnd": 2019 }, "geometry": { "type": "Point", "coordinates": [ -5.7853, 54.8428 ] } },
{ "type": "Feature", "properties": { "site": "Ballylumford C", "operator": "AES", "type": "Gas", "fuelDetail": "Combined cycle", "capacity": 616.0, "lowCarbon": "No", "chp": "-", "yearOpen": "2003", "yearStart": 2004.0, "yearEnd": 2018 }, "geometry": { "type": "Point", "coordinates": [ -5.7853, 54.8428 ] } },
{ "type": "Feature", "properties": { "site": "Killingholme A", "operator": "Uniper UK Limited", "type": "Gas", "fuelDetail": "Gas turbine", "capacity": 600.0, "lowCarbon": "No", "chp": "-", "yearOpen": "1993", "yearStart": 2017.0, "yearEnd": 2018 }, "geometry": { "type": "Point", "coordinates": [ -0.255604, 53.659153 ] } },
{ "type": "Feature", "properties": { "site": "Killingholme A", "operator": "Uniper UK Limited", "type": "Gas", "fuelDetail": "Gas turbine", "capacity": 600.0, "lowCarbon": "No", "chp": "-", "yearOpen": "1993", "yearStart": 2019.0, "yearEnd": 2019 }, "geometry": { "type": "Point", "coordinates": [ -0.255604, 53.659153 ] } },
{ "type": "Feature", "properties": { "site": "Beatrice", "operator": "Scottish & Southern Energy (SSE) \/ Repsol \/ CIP", "type": "Wind", "fuelDetail": "Offshore Wind", "capacity": 588.0, "lowCarbon": "Yes", "chp": "-", "yearOpen": "-", "yearStart": 2019.0, "yearEnd": 2019 }, "geometry": { "type": "Point", "coordinates": [ -2.95015726645, 58.088229265900004 ] } },
{ "type": "Feature", "properties": { "site": "Gwynt y Mor ", "operator": "RWE", "type": "Wind", "fuelDetail": "Offshore Wind", "capacity": 576.0, "lowCarbon": "Yes", "chp": "-", "yearOpen": "2015", "yearStart": 2015.0, "yearEnd": 2019 }, "geometry": { "type": "Point", "coordinates": [ -3.626648678580001, 53.454003444899996 ] } },
{ "type": "Feature", "properties": { "site": "Baglan Bay", "operator": "Baglan Generation Ltd", "type": "Gas", "fuelDetail": "Combined cycle", "capacity": 575.0, "lowCarbon": "No", "chp": "-", "yearOpen": "2002", "yearStart": 2004.0, "yearEnd": 2010 }, "geometry": { "type": "Point", "coordinates": [ -3.834389, 51.615532 ] } },
{ "type": "Feature", "properties": { "site": "Kilroot", "operator": "AES", "type": "Coal", "fuelDetail": "-", "capacity": 560.0, "lowCarbon": "No", "chp": "-", "yearOpen": "1981", "yearStart": 2004.0, "yearEnd": 2018 }, "geometry": { "type": "Point", "coordinates": [ -5.766401, 54.725333 ] } },
{ "type": "Feature", "properties": { "site": "Ballylumford B", "operator": "AES", "type": "Gas", "fuelDetail": "-", "capacity": 540.0, "lowCarbon": "No", "chp": "-", "yearOpen": "1974", "yearStart": 2004.0, "yearEnd": 2015 }, "geometry": { "type": "Point", "coordinates": [ -5.787, 54.845 ] } },
{ "type": "Feature", "properties": { "site": "South Humber Bank 2", "operator": "Centrica", "type": "Gas", "fuelDetail": "Combined cycle", "capacity": 527.0, "lowCarbon": "No", "chp": "-", "yearOpen": "1998", "yearStart": 2004.0, "yearEnd": 2006 }, "geometry": { "type": "Point", "coordinates": [ -0.1466987, 53.6014729 ] } },
{ "type": "Feature", "properties": { "site": "Baglan Bay CCGT", "operator": "Calon energy", "type": "Gas", "fuelDetail": "Combined cycle", "capacity": 520.0, "lowCarbon": "No", "chp": "-", "yearOpen": "2002", "yearStart": 2015.0, "yearEnd": 2018 }, "geometry": { "type": "Point", "coordinates": [ -3.8352, 51.6145 ] } },
{ "type": "Feature", "properties": { "site": "Baglan Bay CCGT", "operator": "Calon energy", "type": "Gas", "fuelDetail": "Combined cycle", "capacity": 520.0, "lowCarbon": "No", "chp": "-", "yearOpen": "2002", "yearStart": 2019.0, "yearEnd": 2019 }, "geometry": { "type": "Point", "coordinates": [ -3.8352, 51.6145 ] } },
{ "type": "Feature", "properties": { "site": "Deeside", "operator": "Engie", "type": "Gas", "fuelDetail": "Combined cycle", "capacity": 515.0, "lowCarbon": "No", "chp": "-", "yearOpen": "1994", "yearStart": 2012.0, "yearEnd": 2018 }, "geometry": { "type": "Point", "coordinates": [ -3.035737, 53.241176 ] } },
{ "type": "Feature", "properties": { "site": "Deeside", "operator": "Engie", "type": "Gas", "fuelDetail": "Combined cycle", "capacity": 515.0, "lowCarbon": "No", "chp": "-", "yearOpen": "1994", "yearStart": 2019.0, "yearEnd": 2019 }, "geometry": { "type": "Point", "coordinates": [ -3.035737, 53.241176 ] } },
{ "type": "Feature", "properties": { "site": "Baglan Bay", "operator": "Baglan Generation Ltd", "type": "Gas", "fuelDetail": "Combined cycle", "capacity": 510.0, "lowCarbon": "No", "chp": "-", "yearOpen": "2002", "yearStart": 2011.0, "yearEnd": 2014 }, "geometry": { "type": "Point", "coordinates": [ -3.834389, 51.615532 ] } },
{ "type": "Feature", "properties": { "site": "Greater Gabbard Wind Farm", "operator": "SSE \/ Innogy", "type": "Wind", "fuelDetail": "Offshore Wind", "capacity": 504.0, "lowCarbon": "Yes", "chp": "-", "yearOpen": "2012", "yearStart": 2012.0, "yearEnd": 2019 }, "geometry": { "type": "Point", "coordinates": [ 1.92842019443, 51.917644667499999 ] } },
{ "type": "Feature", "properties": { "site": "Deeside", "operator": "International Power \/ Mitsui", "type": "Gas", "fuelDetail": "Combined cycle", "capacity": 500.0, "lowCarbon": "No", "chp": "-", "yearOpen": "1994", "yearStart": 2004.0, "yearEnd": 2011 }, "geometry": { "type": "Point", "coordinates": [ -3.035737, 53.241176 ] } },
{ "type": "Feature", "properties": { "site": "Wylfa", "operator": "Magnox Ltd", "type": "Nuclear", "fuelDetail": "-", "capacity": 490.0, "lowCarbon": "Yes", "chp": "-", "yearOpen": "1971", "yearStart": 2012.0, "yearEnd": 2015 }, "geometry": { "type": "Point", "coordinates": [ -4.48044, 53.41565 ] } },
{ "type": "Feature", "properties": { "site": "Fawley", "operator": "RWE Npower Plc", "type": "Oil", "fuelDetail": "-", "capacity": 484.0, "lowCarbon": "No", "chp": "-", "yearOpen": "1969", "yearStart": 2004.0, "yearEnd": 2006 }, "geometry": { "type": "Point", "coordinates": [ -1.379604, 50.848496 ] } },
{ "type": "Feature", "properties": { "site": "Neart na Gaoithe", "operator": "EDF Renewables Power", "type": "Wind", "fuelDetail": "Offshore Wind", "capacity": 450.0, "lowCarbon": "Yes", "chp": "-", "yearOpen": "-", "yearStart": 2019.0, "yearEnd": 2019 }, "geometry": { "type": "Point", "coordinates": [ -2.25000122635, 56.269999806499996 ] } },
{ "type": "Feature", "properties": { "site": "Dungeness A", "operator": "BNFL British Nuclear Group", "type": "Nuclear", "fuelDetail": "-", "capacity": 450.0, "lowCarbon": "Yes", "chp": "-", "yearOpen": "1965", "yearStart": 2004.0, "yearEnd": 2006 }, "geometry": { "type": "Point", "coordinates": [ 0.96389, 50.91389 ] } },
{ "type": "Feature", "properties": { "site": "Cottam Development Centre", "operator": "Uniper UK Limited", "type": "Gas", "fuelDetail": "Combined cycle", "capacity": 445.0, "lowCarbon": "No", "chp": "-", "yearOpen": "1999", "yearStart": 2019.0, "yearEnd": 2019 }, "geometry": { "type": "Point", "coordinates": [ -0.786249, 53.307316 ] } },
{ "type": "Feature", "properties": { "site": "Cottam Development Centre", "operator": "Uniper UK Limited", "type": "Gas", "fuelDetail": "Combined cycle", "capacity": 445.0, "lowCarbon": "No", "chp": "-", "yearOpen": "1999", "yearStart": 2018.0, "yearEnd": 2018 }, "geometry": { "type": "Point", "coordinates": [ -0.786249, 53.307316 ] } },
{ "type": "Feature", "properties": { "site": "Cruachan", "operator": "Scottish Power", "type": "Storage", "fuelDetail": "Pumped Hydro", "capacity": 440.0, "lowCarbon": "Yes", "chp": "-", "yearOpen": "1966", "yearStart": 2004.0, "yearEnd": 2019 }, "geometry": { "type": "Point", "coordinates": [ -5.11345094977, 56.411152364700001 ] } },
{ "type": "Feature", "properties": { "site": "Oldbury A", "operator": "Magnox Ltd", "type": "Nuclear", "fuelDetail": "-", "capacity": 434.0, "lowCarbon": "Yes", "chp": "-", "yearOpen": "1967", "yearStart": 2004.0, "yearEnd": 2011 }, "geometry": { "type": "Point", "coordinates": [ -2.57083, 51.64889 ] } },
{ "type": "Feature", "properties": { "site": "Shoreham", "operator": "Scottish power", "type": "Gas", "fuelDetail": "Combined cycle", "capacity": 420.0, "lowCarbon": "No", "chp": "-", "yearOpen": "2000", "yearStart": 2019.0, "yearEnd": 2019 }, "geometry": { "type": "Point", "coordinates": [ -0.2312123, 50.82986 ] } },
{ "type": "Feature", "properties": { "site": "Coolkeeragh", "operator": "Coolkeeragh ESB Ltd", "type": "Gas", "fuelDetail": "Combined cycle", "capacity": 420.0, "lowCarbon": "No", "chp": "-", "yearOpen": "2005", "yearStart": 2005.0, "yearEnd": 2006 }, "geometry": { "type": "Point", "coordinates": [ -7.249564, 55.043794 ] } },
{ "type": "Feature", "properties": { "site": "Great Yarmouth", "operator": "RWE Generation SE", "type": "Gas", "fuelDetail": "Combined cycle", "capacity": 420.0, "lowCarbon": "No", "chp": "-", "yearOpen": "2001", "yearStart": 2019.0, "yearEnd": 2019 }, "geometry": { "type": "Point", "coordinates": [ 1.733613, 52.58399 ] } },
{ "type": "Feature", "properties": { "site": "Great Yarmouth", "operator": "RWE Generation SE", "type": "Gas", "fuelDetail": "Combined cycle", "capacity": 420.0, "lowCarbon": "No", "chp": "-", "yearOpen": "2001", "yearStart": 2004.0, "yearEnd": 2018 }, "geometry": { "type": "Point", "coordinates": [ 1.733613, 52.58399 ] } },
{ "type": "Feature", "properties": { "site": "Lynemouth biomass", "operator": "-", "type": "Biomass", "fuelDetail": "-", "capacity": 420.0, "lowCarbon": "Yes", "chp": "-", "yearOpen": "2018", "yearStart": 2018.0, "yearEnd": 2018 }, "geometry": { "type": "Point", "coordinates": [ -1.520356, 55.20475 ] } },
{ "type": "Feature", "properties": { "site": "Lynemouth", "operator": "Lynemouth Power Ltd", "type": "Coal", "fuelDetail": "-", "capacity": 420.0, "lowCarbon": "No", "chp": "-", "yearOpen": "1972", "yearStart": 2004.0, "yearEnd": 2015 }, "geometry": { "type": "Point", "coordinates": [ -1.520356, 55.20475 ] } },
{ "type": "Feature", "properties": { "site": "Shoreham", "operator": "Scottish power", "type": "Gas", "fuelDetail": "Combined cycle", "capacity": 420.0, "lowCarbon": "No", "chp": "-", "yearOpen": "2000", "yearStart": 2014.0, "yearEnd": 2018 }, "geometry": { "type": "Point", "coordinates": [ -0.2312123, 50.82986 ] } },
{ "type": "Feature", "properties": { "site": "Sizewell A", "operator": "BNFL British Nuclear Group", "type": "Nuclear", "fuelDetail": "-", "capacity": 420.0, "lowCarbon": "Yes", "chp": "-", "yearOpen": "1966", "yearStart": 2004.0, "yearEnd": 2006 }, "geometry": { "type": "Point", "coordinates": [ 1.61972, 52.215 ] } },
{ "type": "Feature", "properties": { "site": "Lynemouth biomass", "operator": "-", "type": "Biomass", "fuelDetail": "-", "capacity": 420.0, "lowCarbon": "Yes", "chp": "-", "yearOpen": "2018", "yearStart": 2019.0, "yearEnd": 2019 }, "geometry": { "type": "Point", "coordinates": [ -1.520356, 55.20475 ] } },
{ "type": "Feature", "properties": { "site": "Coolkeeragh", "operator": "ESB", "type": "Gas", "fuelDetail": "Combined cycle", "capacity": 408.0, "lowCarbon": "No", "chp": "-", "yearOpen": "2005", "yearStart": 2007.0, "yearEnd": 2018 }, "geometry": { "type": "Point", "coordinates": [ -7.249564, 55.043794 ] } },
{ "type": "Feature", "properties": { "site": "Enfield", "operator": "Uniper UK Limited", "type": "Gas", "fuelDetail": "Combined cycle", "capacity": 408.0, "lowCarbon": "No", "chp": "-", "yearOpen": "1999", "yearStart": 2019.0, "yearEnd": 2019 }, "geometry": { "type": "Point", "coordinates": [ -0.022455, 51.662733 ] } },
{ "type": "Feature", "properties": { "site": "Coolkeeragh", "operator": "ESB", "type": "Gas", "fuelDetail": "Combined cycle", "capacity": 408.0, "lowCarbon": "No", "chp": "-", "yearOpen": "2005", "yearStart": 2019.0, "yearEnd": 2019 }, "geometry": { "type": "Point", "coordinates": [ -7.249564, 55.043794 ] } },
{ "type": "Feature", "properties": { "site": "Enfield", "operator": "Uniper UK Limited", "type": "Gas", "fuelDetail": "Combined cycle", "capacity": 408.0, "lowCarbon": "No", "chp": "-", "yearOpen": "1999", "yearStart": 2011.0, "yearEnd": 2018 }, "geometry": { "type": "Point", "coordinates": [ -0.022455, 51.662733 ] } },
{ "type": "Feature", "properties": { "site": "Peterborough", "operator": "Centrica", "type": "Gas", "fuelDetail": "Combined cycle", "capacity": 405.0, "lowCarbon": "No", "chp": "-", "yearOpen": "1993", "yearStart": 2007.0, "yearEnd": 2012 }, "geometry": { "type": "Point", "coordinates": [ -0.2037041, 52.57709 ] } },
{ "type": "Feature", "properties": { "site": "Dudgeon East ", "operator": "Statoil \/ Statkraft", "type": "Wind", "fuelDetail": "Offshore Wind", "capacity": 402.0, "lowCarbon": "Yes", "chp": "-", "yearOpen": "2017", "yearStart": 2017.0, "yearEnd": 2019 }, "geometry": { "type": "Point", "coordinates": [ 0.613468182319, 53.117460069 ] } },
{ "type": "Feature", "properties": { "site": "Corby", "operator": "Corby Power Ltd", "type": "Gas", "fuelDetail": "Combined cycle", "capacity": 401.0, "lowCarbon": "No", "chp": "-", "yearOpen": "1993", "yearStart": 2004.0, "yearEnd": 2018 }, "geometry": { "type": "Point", "coordinates": [ -0.681174, 52.510945 ] } },
{ "type": "Feature", "properties": { "site": "Cottam Development Centre", "operator": "E.On UK", "type": "Gas", "fuelDetail": "Combined cycle", "capacity": 400.0, "lowCarbon": "No", "chp": "-", "yearOpen": "1999", "yearStart": 2004.0, "yearEnd": 2010 }, "geometry": { "type": "Point", "coordinates": [ -0.786249, 53.307316 ] } },
{ "type": "Feature", "properties": { "site": "Rampion Offshore Wind Farm (Hastings Zone)", "operator": "E.ON UK", "type": "Wind", "fuelDetail": "Offshore Wind", "capacity": 400.0, "lowCarbon": "Yes", "chp": "-", "yearOpen": "2017", "yearStart": 2017.0, "yearEnd": 2019 }, "geometry": { "type": "Point", "coordinates": [ -0.180003297883, 50.6399936141 ] } },
{ "type": "Feature", "properties": { "site": "Shoreham", "operator": "Scottish Power", "type": "Gas", "fuelDetail": "Combined cycle", "capacity": 400.0, "lowCarbon": "No", "chp": "-", "yearOpen": "2000", "yearStart": 2004.0, "yearEnd": 2013 }, "geometry": { "type": "Point", "coordinates": [ -0.2312123, 50.82986 ] } },
{ "type": "Feature", "properties": { "site": "EFDA JJET Fusion Flywheel", "operator": "EFDA JET", "type": "Storage", "fuelDetail": "Flywheeel", "capacity": 400.0, "lowCarbon": "Yes", "chp": "-", "yearOpen": "2006", "yearStart": 2006.0, "yearEnd": 2019 }, "geometry": { "type": "Point", "coordinates": [ -1.2286663352, 51.657948267700007 ] } },
{ "type": "Feature", "properties": { "site": "Cottam Development Centre", "operator": "Uniper UK Limited", "type": "Gas", "fuelDetail": "Combined cycle", "capacity": 395.0, "lowCarbon": "No", "chp": "-", "yearOpen": "1999", "yearStart": 2005.0, "yearEnd": 2017 }, "geometry": { "type": "Point", "coordinates": [ -0.786249, 53.307316 ] } },
{ "type": "Feature", "properties": { "site": "Fifoots Point", "operator": "AES Fifoots Point Ltd", "type": "Coal", "fuelDetail": "-", "capacity": 393.0, "lowCarbon": "No", "chp": "-", "yearOpen": "2000", "yearStart": 2004.0, "yearEnd": 2004 }, "geometry": { "type": "Point", "coordinates": [ -2.972258, 51.549631 ] } },
{ "type": "Feature", "properties": { "site": "Uskmouth", "operator": "Uskmouth Power Company Ltd", "type": "Coal", "fuelDetail": "-", "capacity": 393.0, "lowCarbon": "No", "chp": "-", "yearOpen": "2000", "yearStart": 2005.0, "yearEnd": 2007 }, "geometry": { "type": "Point", "coordinates": [ -2.969885, 51.5497 ] } },
{ "type": "Feature", "properties": { "site": "Enfield", "operator": "E.On UK", "type": "Gas", "fuelDetail": "Combined cycle", "capacity": 392.0, "lowCarbon": "No", "chp": "-", "yearOpen": "1999", "yearStart": 2006.0, "yearEnd": 2010 }, "geometry": { "type": "Point", "coordinates": [ -0.022455, 51.662733 ] } },
{ "type": "Feature", "properties": { "site": "Brimsdown", "operator": "E.On UK", "type": "Gas", "fuelDetail": "Combined cycle", "capacity": 392.0, "lowCarbon": "No", "chp": "-", "yearOpen": "1999", "yearStart": 2005.0, "yearEnd": 2005 }, "geometry": { "type": "Point", "coordinates": [ -0.022, 51.661 ] } },
{ "type": "Feature", "properties": { "site": "Brimsdown", "operator": "Enfield Energy Centre Ltd", "type": "Gas", "fuelDetail": "Combined cycle", "capacity": 390.0, "lowCarbon": "No", "chp": "-", "yearOpen": "1999", "yearStart": 2004.0, "yearEnd": 2004 }, "geometry": { "type": "Point", "coordinates": [ -0.022, 51.661 ] } },
{ "type": "Feature", "properties": { "site": "Cottam Development Centre", "operator": "E.On UK", "type": "Gas", "fuelDetail": "Combined cycle", "capacity": 390.0, "lowCarbon": "No", "chp": "-", "yearOpen": "1999", "yearStart": 2011.0, "yearEnd": 2013 }, "geometry": { "type": "Point", "coordinates": [ -0.786249, 53.307316 ] } },
{ "type": "Feature", "properties": { "site": "West of Duddon Sands", "operator": "Scottish Power Renewables & Orsted (formerly Dong Energy)", "type": "Wind", "fuelDetail": "Offshore Wind", "capacity": 389.0, "lowCarbon": "Yes", "chp": "-", "yearOpen": "2014", "yearStart": 2014.0, "yearEnd": 2019 }, "geometry": { "type": "Point", "coordinates": [ -3.46200711702, 53.985149828500006 ] } },
{ "type": "Feature", "properties": { "site": "Peterborough", "operator": "Centrica", "type": "Gas", "fuelDetail": "Combined cycle", "capacity": 380.0, "lowCarbon": "No", "chp": "-", "yearOpen": "1993", "yearStart": 2004.0, "yearEnd": 2006 }, "geometry": { "type": "Point", "coordinates": [ -0.2037041, 52.57709 ] } },
{ "type": "Feature", "properties": { "site": "Kings Lynn", "operator": "Centrica", "type": "Gas", "fuelDetail": "Combined cycle", "capacity": 370.0, "lowCarbon": "No", "chp": "-", "yearOpen": "2019", "yearStart": 2019.0, "yearEnd": 2019 }, "geometry": { "type": "Point", "coordinates": [ 0.3771045, 52.7280252 ] } },
{ "type": "Feature", "properties": { "site": "Uskmouth Power", "operator": "SIMEC", "type": "Coal", "fuelDetail": "-", "capacity": 363.0, "lowCarbon": "No", "chp": "-", "yearOpen": "1966", "yearStart": 2018.0, "yearEnd": 2018 }, "geometry": { "type": "Point", "coordinates": [ -2.969559, 51.548759 ] } },
{ "type": "Feature", "properties": { "site": "Uskmouth", "operator": "Scottish and Southern", "type": "Coal", "fuelDetail": "-", "capacity": 363.0, "lowCarbon": "No", "chp": "-", "yearOpen": "2000", "yearStart": 2008.0, "yearEnd": 2012 }, "geometry": { "type": "Point", "coordinates": [ -2.969885, 51.5497 ] } },
{ "type": "Feature", "properties": { "site": "Ffestiniog", "operator": "First Hydro Company", "type": "Storage", "fuelDetail": "Pumped Hydro", "capacity": 360.0, "lowCarbon": "Yes", "chp": "-", "yearOpen": "1961", "yearStart": 2004.0, "yearEnd": 2019 }, "geometry": { "type": "Point", "coordinates": [ -3.96889019446, 52.980832485500002 ] } },
{ "type": "Feature", "properties": { "site": "Peterborough", "operator": "Centrica", "type": "Gas", "fuelDetail": "Combined cycle", "capacity": 360.0, "lowCarbon": "No", "chp": "-", "yearOpen": "1993", "yearStart": 2018.0, "yearEnd": 2018 }, "geometry": { "type": "Point", "coordinates": [ -0.2037041, 52.57709 ] } },
{ "type": "Feature", "properties": { "site": "Ironbridge", "operator": "E.On UK", "type": "Biomass", "fuelDetail": "-", "capacity": 360.0, "lowCarbon": "Yes", "chp": "-", "yearOpen": "1970", "yearStart": 2014.0, "yearEnd": 2015 }, "geometry": { "type": "Point", "coordinates": [ -2.512676, 52.632529 ] } },
{ "type": "Feature", "properties": { "site": "Peterborough", "operator": "Centrica", "type": "Gas", "fuelDetail": "Combined cycle", "capacity": 360.0, "lowCarbon": "No", "chp": "-", "yearOpen": "1993", "yearStart": 2019.0, "yearEnd": 2019 }, "geometry": { "type": "Point", "coordinates": [ -0.2037041, 52.57709 ] } },
{ "type": "Feature", "properties": { "site": "Galloper Wind Farm", "operator": "RWE Npower Renewables", "type": "Wind", "fuelDetail": "Offshore Wind", "capacity": 353.0, "lowCarbon": "Yes", "chp": "-", "yearOpen": "2018", "yearStart": 2018.0, "yearEnd": 2019 }, "geometry": { "type": "Point", "coordinates": [ 2.03999339327, 51.879991740100003 ] } },
{ "type": "Feature", "properties": { "site": "Clyde Wind Farm", "operator": "Scottish and Southern Energy (SSE)\/ Greencoat UK Wind ", "type": "Wind", "fuelDetail": "Onshore Wind", "capacity": 350.0, "lowCarbon": "Yes", "chp": "-", "yearOpen": "2012", "yearStart": 2012.0, "yearEnd": 2019 }, "geometry": { "type": "Point", "coordinates": [ -3.54273428998, 55.441634085299995 ] } },
{ "type": "Feature", "properties": { "site": "Kings Lynn", "operator": "Centrica", "type": "Gas", "fuelDetail": "Combined cycle", "capacity": 340.0, "lowCarbon": "No", "chp": "-", "yearOpen": "1996", "yearStart": 2004.0, "yearEnd": 2011 }, "geometry": { "type": "Point", "coordinates": [ 0.3771045, 52.7280252 ] } },
{ "type": "Feature", "properties": { "site": "Whitelee", "operator": "CRE Energy\/ Scottish Power", "type": "Wind", "fuelDetail": "Onshore Wind", "capacity": 322.0, "lowCarbon": "Yes", "chp": "-", "yearOpen": "2007", "yearStart": 2007.0, "yearEnd": 2019 }, "geometry": { "type": "Point", "coordinates": [ -4.279060631369999, 55.6812068801 ] } },
{ "type": "Feature", "properties": { "site": "Telford Offshore Windfarm (Moray Firth)", "operator": "Moray East (formerly MORL)\/ EDPR", "type": "Wind", "fuelDetail": "Offshore Wind", "capacity": 317.0, "lowCarbon": "Yes", "chp": "-", "yearOpen": "-", "yearStart": 2019.0, "yearEnd": 2019 }, "geometry": { "type": "Point", "coordinates": [ -2.79053988569, 58.211231765 ] } },
{ "type": "Feature", "properties": { "site": "Sheringham Shoal ", "operator": "Vattenfall", "type": "Wind", "fuelDetail": "Offshore Wind", "capacity": 317.0, "lowCarbon": "Yes", "chp": "-", "yearOpen": "2012", "yearStart": 2012.0, "yearEnd": 2019 }, "geometry": { "type": "Point", "coordinates": [ 1.14792181838, 53.135318599399994 ] } },
{ "type": "Feature", "properties": { "site": "MacColl Offshore Windfarm (Moray Firth)", "operator": "Moray East (formerly MORL)\/ EDPR", "type": "Wind", "fuelDetail": "Offshore Wind", "capacity": 317.0, "lowCarbon": "Yes", "chp": "-", "yearOpen": "-", "yearStart": 2019.0, "yearEnd": 2019 }, "geometry": { "type": "Point", "coordinates": [ -2.79053695522, 57.967324526899993 ] } },
{ "type": "Feature", "properties": { "site": "Stevenson Offshore Windfarm (Moray Firth)", "operator": "Moray East (formerly MORL)\/ EDPR", "type": "Wind", "fuelDetail": "Offshore Wind", "capacity": 316.0, "lowCarbon": "Yes", "chp": "-", "yearOpen": "-", "yearStart": 2019.0, "yearEnd": 2019 }, "geometry": { "type": "Point", "coordinates": [ -3.15857905711, 58.054625466200001 ] } },
{ "type": "Feature", "properties": { "site": "Thanet ", "operator": "Vattenfall", "type": "Wind", "fuelDetail": "Offshore Wind", "capacity": 300.0, "lowCarbon": "Yes", "chp": "-", "yearOpen": "2010", "yearStart": 2010.0, "yearEnd": 2019 }, "geometry": { "type": "Point", "coordinates": [ 1.63341134868, 51.429932066300005 ] } },
{ "type": "Feature", "properties": { "site": "Foyers", "operator": "SSE Renewables", "type": "Storage", "fuelDetail": "Pumped Hydro", "capacity": 300.0, "lowCarbon": "Yes", "chp": "-", "yearOpen": "1974", "yearStart": 2004.0, "yearEnd": 2019 }, "geometry": { "type": "Point", "coordinates": [ -4.49382047511, 57.254357318500006 ] } },
{ "type": "Feature", "properties": { "site": "Spalding expansion", "operator": "Intergen", "type": "Gas", "fuelDetail": "Gas turbine ", "capacity": 300.0, "lowCarbon": "No", "chp": "-", "yearOpen": "2019", "yearStart": 2019.0, "yearEnd": 2019 }, "geometry": { "type": "Point", "coordinates": [ -0.13297, 52.804313 ] } },
{ "type": "Feature", "properties": { "site": "Tees Renewable Energy Plant", "operator": "Macquarie\/ PKA\/ MGT Power", "type": "Biomass", "fuelDetail": "-", "capacity": 299.0, "lowCarbon": "Yes", "chp": "Yes", "yearOpen": "-", "yearStart": 2019.0, "yearEnd": 2019 }, "geometry": { "type": "Point", "coordinates": [ -1.16128195451, 54.602146127799998 ] } },
{ "type": "Feature", "properties": { "site": "Race Bank (Phase 2)", "operator": "Orsted (formerly Dong Energy)\/ Macquarie Group", "type": "Wind", "fuelDetail": "Offshore Wind", "capacity": 286.5, "lowCarbon": "Yes", "chp": "-", "yearOpen": "2018", "yearStart": 2018.0, "yearEnd": 2019 }, "geometry": { "type": "Point", "coordinates": [ 0.589174330006, 53.135974234300001 ] } },
{ "type": "Feature", "properties": { "site": "Race Bank (Phase 1)", "operator": "Orsted (formerly Dong Energy)\/ Macquarie Group", "type": "Wind", "fuelDetail": "Offshore Wind", "capacity": 286.5, "lowCarbon": "Yes", "chp": "-", "yearOpen": "2017", "yearStart": 2017.0, "yearEnd": 2019 }, "geometry": { "type": "Point", "coordinates": [ 0.589174330006, 53.135974234300001 ] } },
{ "type": "Feature", "properties": { "site": "Wilton Power Station", "operator": "Sembcorp Utilities Ltd", "type": "Coal", "fuelDetail": "-", "capacity": 280.0, "lowCarbon": "No", "chp": "-", "yearOpen": "1952", "yearStart": 2010.0, "yearEnd": 2012 }, "geometry": { "type": "Point", "coordinates": [ -1.1185, 54.5894 ] } },
{ "type": "Feature", "properties": { "site": "Centrica (Lincs)", "operator": "GIB", "type": "Wind", "fuelDetail": "Offshore Wind", "capacity": 270.0, "lowCarbon": "Yes", "chp": "-", "yearOpen": "2013", "yearStart": 2013.0, "yearEnd": 2019 }, "geometry": { "type": "Point", "coordinates": [ 0.498076956407, 53.1841724457 ] } },
{ "type": "Feature", "properties": { "site": "Glanford Brigg", "operator": "Centrica", "type": "Gas", "fuelDetail": "Combined cycle", "capacity": 268.0, "lowCarbon": "No", "chp": "-", "yearOpen": "1993", "yearStart": 2006.0, "yearEnd": 2007 }, "geometry": { "type": "Point", "coordinates": [ -0.504818, 53.54131 ] } },
{ "type": "Feature", "properties": { "site": "Glanford Brigg", "operator": "Centrica", "type": "Gas", "fuelDetail": "Combined cycle", "capacity": 260.0, "lowCarbon": "No", "chp": "-", "yearOpen": "1993", "yearStart": 2008.0, "yearEnd": 2012 }, "geometry": { "type": "Point", "coordinates": [ -0.504818, 53.54131 ] } },
{ "type": "Feature", "properties": { "site": "Burbo Bank Extension (Burbo Bank 2)", "operator": "Orsted (formerly Dong Energy)", "type": "Wind", "fuelDetail": "Offshore Wind", "capacity": 258.0, "lowCarbon": "Yes", "chp": "-", "yearOpen": "2017", "yearStart": 2017.0, "yearEnd": 2019 }, "geometry": { "type": "Point", "coordinates": [ -3.27000006282, 53.479991905600002 ] } },
{ "type": "Feature", "properties": { "site": "Barry", "operator": "Centrica", "type": "Gas", "fuelDetail": "Combined cycle", "capacity": 250.0, "lowCarbon": "No", "chp": "-", "yearOpen": "1998", "yearStart": 2004.0, "yearEnd": 2006 }, "geometry": { "type": "Point", "coordinates": [ -3.229313, 51.40954 ] } },
{ "type": "Feature", "properties": { "site": "Ballylumford B", "operator": "AES", "type": "Gas", "fuelDetail": "-", "capacity": 250.0, "lowCarbon": "No", "chp": "-", "yearOpen": "1974", "yearStart": 2016.0, "yearEnd": 2018 }, "geometry": { "type": "Point", "coordinates": [ -5.787, 54.845 ] } },
{ "type": "Feature", "properties": { "site": "Barry", "operator": "Centrica", "type": "Gas", "fuelDetail": "Combined cycle", "capacity": 245.0, "lowCarbon": "No", "chp": "-", "yearOpen": "1998", "yearStart": 2007.0, "yearEnd": 2007 }, "geometry": { "type": "Point", "coordinates": [ -3.229313, 51.40954 ] } },
{ "type": "Feature", "properties": { "site": "Uskmouth", "operator": "Scottish and Southern", "type": "Coal", "fuelDetail": "-", "capacity": 240.0, "lowCarbon": "No", "chp": "-", "yearOpen": "2000", "yearStart": 2013.0, "yearEnd": 2013 }, "geometry": { "type": "Point", "coordinates": [ -2.969885, 51.5497 ] } },
{ "type": "Feature", "properties": { "site": "Peterborough", "operator": "Centrica", "type": "Gas", "fuelDetail": "Combined cycle", "capacity": 240.0, "lowCarbon": "No", "chp": "-", "yearOpen": "1993", "yearStart": 2013.0, "yearEnd": 2017 }, "geometry": { "type": "Point", "coordinates": [ -0.2037041, 52.57709 ] } },
{ "type": "Feature", "properties": { "site": "Glanford Brigg", "operator": "Centrica", "type": "Gas", "fuelDetail": "Combined cycle", "capacity": 240.0, "lowCarbon": "No", "chp": "-", "yearOpen": "1993", "yearStart": 2004.0, "yearEnd": 2005 }, "geometry": { "type": "Point", "coordinates": [ -0.504818, 53.54131 ] } },
{ "type": "Feature", "properties": { "site": "Kilgallioch wind farm", "operator": "Scottish Power Renewables", "type": "Wind", "fuelDetail": "Onshore Wind", "capacity": 239.0, "lowCarbon": "Yes", "chp": "-", "yearOpen": "2017", "yearStart": 2017.0, "yearEnd": 2019 }, "geometry": { "type": "Point", "coordinates": [ -4.8017159013, 54.988452759600001 ] } },
{ "type": "Feature", "properties": { "site": "Wilton Power Station", "operator": "Sembcorp Utilities Ltd", "type": "Coal", "fuelDetail": "-", "capacity": 238.0, "lowCarbon": "No", "chp": "-", "yearOpen": "1952", "yearStart": 2013.0, "yearEnd": 2014 }, "geometry": { "type": "Point", "coordinates": [ -1.1185, 54.5894 ] } },
{ "type": "Feature", "properties": { "site": "Derwent", "operator": "Derwent Cogeneration", "type": "Gas", "fuelDetail": "Combined heat and power", "capacity": 236.0, "lowCarbon": "No", "chp": "Yes", "yearOpen": "1994", "yearStart": 2004.0, "yearEnd": 2008 }, "geometry": { "type": "Point", "coordinates": [ -1.4018635, 52.9057913 ] } },
{ "type": "Feature", "properties": { "site": "Barry", "operator": "Centrica", "type": "Gas", "fuelDetail": "Combined cycle", "capacity": 235.0, "lowCarbon": "No", "chp": "-", "yearOpen": "1998", "yearStart": 2019.0, "yearEnd": 2019 }, "geometry": { "type": "Point", "coordinates": [ -3.229313, 51.40954 ] } },
{ "type": "Feature", "properties": { "site": "Barry", "operator": "Centrica", "type": "Gas", "fuelDetail": "Combined cycle", "capacity": 235.0, "lowCarbon": "No", "chp": "-", "yearOpen": "1998", "yearStart": 2015.0, "yearEnd": 2018 }, "geometry": { "type": "Point", "coordinates": [ -3.229313, 51.40954 ] } },
{ "type": "Feature", "properties": { "site": "Barry", "operator": "Centrica", "type": "Gas", "fuelDetail": "Combined cycle", "capacity": 230.0, "lowCarbon": "No", "chp": "-", "yearOpen": "1998", "yearStart": 2008.0, "yearEnd": 2012 }, "geometry": { "type": "Point", "coordinates": [ -3.229313, 51.40954 ] } },
{ "type": "Feature", "properties": { "site": "Uskmouth Power", "operator": "SIMEC", "type": "Coal", "fuelDetail": "-", "capacity": 230.0, "lowCarbon": "No", "chp": "-", "yearOpen": "1966", "yearStart": 2017.0, "yearEnd": 2017 }, "geometry": { "type": "Point", "coordinates": [ -2.969559, 51.548759 ] } },
{ "type": "Feature", "properties": { "site": "Roosecote", "operator": "Centrica", "type": "Gas", "fuelDetail": "Combined cycle", "capacity": 229.0, "lowCarbon": "No", "chp": "-", "yearOpen": "1991", "yearStart": 2004.0, "yearEnd": 2012 }, "geometry": { "type": "Point", "coordinates": [ -3.187732, 54.10499 ] } },
{ "type": "Feature", "properties": { "site": "Derwent", "operator": "Derwent Cogeneration", "type": "Gas", "fuelDetail": "Combined heat and power", "capacity": 228.0, "lowCarbon": "No", "chp": "Yes", "yearOpen": "1994", "yearStart": 2011.0, "yearEnd": 2012 }, "geometry": { "type": "Point", "coordinates": [ -1.4018635, 52.9057913 ] } },
{ "type": "Feature", "properties": { "site": "Pen Y Cymoedd", "operator": "Vattenfall (previously Nuon Renewables)", "type": "Wind", "fuelDetail": "Onshore Wind", "capacity": 228.0, "lowCarbon": "Yes", "chp": "-", "yearOpen": "2017", "yearStart": 2017.0, "yearEnd": 2019 }, "geometry": { "type": "Point", "coordinates": [ -3.69573023798, 51.655542919399998 ] } },
{ "type": "Feature", "properties": { "site": "Stronelairg Wind Farm", "operator": "Scottish and Southern Energy (SSE)", "type": "Wind", "fuelDetail": "Onshore Wind", "capacity": 228.0, "lowCarbon": "Yes", "chp": "-", "yearOpen": "2018", "yearStart": 2018.0, "yearEnd": 2019 }, "geometry": { "type": "Point", "coordinates": [ -4.52637004827, 57.126924521 ] } },
{ "type": "Feature", "properties": { "site": "Humber Gateway A", "operator": "E.ON  Humber Wind Ltd\/ Balfour Beatty Investments and Equitix.", "type": "Wind", "fuelDetail": "Offshore Wind", "capacity": 219.0, "lowCarbon": "Yes", "chp": "-", "yearOpen": "2015", "yearStart": 2015.0, "yearEnd": 2019 }, "geometry": { "type": "Point", "coordinates": [ 0.500643456905, 53.387462837400001 ] } },
{ "type": "Feature", "properties": { "site": "Derwent", "operator": "Derwent Cogeneration", "type": "Gas", "fuelDetail": "Combined heat and power", "capacity": 214.0, "lowCarbon": "No", "chp": "Yes", "yearOpen": "1994", "yearStart": 2009.0, "yearEnd": 2010 }, "geometry": { "type": "Point", "coordinates": [ -1.4018635, 52.9057913 ] } },
{ "type": "Feature", "properties": { "site": "Shotton", "operator": "GDF Suez", "type": "Gas", "fuelDetail": "Combined heat and power", "capacity": 210.0, "lowCarbon": "No", "chp": "Yes", "yearOpen": "2001", "yearStart": 2011.0, "yearEnd": 2012 }, "geometry": { "type": "Point", "coordinates": [ -3.0364805, 53.2333918 ] } },
{ "type": "Feature", "properties": { "site": "Westermost Rough A", "operator": "Orsted (formerly Dong Energy)", "type": "Wind", "fuelDetail": "Offshore Wind", "capacity": 210.0, "lowCarbon": "Yes", "chp": "-", "yearOpen": "2015", "yearStart": 2015.0, "yearEnd": 2019 }, "geometry": { "type": "Point", "coordinates": [ 0.56148124794, 53.097730211800005 ] } },
{ "type": "Feature", "properties": { "site": "Chapelcross", "operator": "BNFL British Nuclear Group", "type": "Nuclear", "fuelDetail": "-", "capacity": 196.0, "lowCarbon": "Yes", "chp": "-", "yearOpen": "1959", "yearStart": 2004.0, "yearEnd": 2004 }, "geometry": { "type": "Point", "coordinates": [ -3.22605, 55.01566 ] } },
{ "type": "Feature", "properties": { "site": "Walney 2", "operator": "Orsted (formerly Dong Energy)", "type": "Wind", "fuelDetail": "Offshore Wind", "capacity": 183.6, "lowCarbon": "Yes", "chp": "-", "yearOpen": "2012", "yearStart": 2012.0, "yearEnd": 2019 }, "geometry": { "type": "Point", "coordinates": [ -3.60896690088, 54.080736001400005 ] } },
{ "type": "Feature", "properties": { "site": "Walney 1", "operator": "Orsted (formerly Dong Energy)", "type": "Wind", "fuelDetail": "Offshore Wind", "capacity": 183.6, "lowCarbon": "Yes", "chp": "-", "yearOpen": "2011", "yearStart": 2011.0, "yearEnd": 2019 }, "geometry": { "type": "Point", "coordinates": [ -3.5157889106, 54.0394486239 ] } },
{ "type": "Feature", "properties": { "site": "Shotton", "operator": "GDF Suez", "type": "Gas", "fuelDetail": "Combined heat and power", "capacity": 180.0, "lowCarbon": "No", "chp": "Yes", "yearOpen": "2001", "yearStart": 2005.0, "yearEnd": 2010 }, "geometry": { "type": "Point", "coordinates": [ -3.0364805, 53.2333918 ] } },
{ "type": "Feature", "properties": { "site": "Fellside CHP", "operator": "Sellafield Ltd", "type": "Gas", "fuelDetail": "Combined cycle", "capacity": 180.0, "lowCarbon": "No", "chp": "Yes", "yearOpen": "1995", "yearStart": 2007.0, "yearEnd": 2018 }, "geometry": { "type": "Point", "coordinates": [ -3.4883, 54.4184 ] } },
{ "type": "Feature", "properties": { "site": "Fellside", "operator": "Px Limited", "type": "Gas", "fuelDetail": "-", "capacity": 180.0, "lowCarbon": "No", "chp": "Yes", "yearOpen": "1995", "yearStart": 2014.0, "yearEnd": 2014 }, "geometry": { "type": "Point", "coordinates": [ -3.490937, 54.417033 ] } },
{ "type": "Feature", "properties": { "site": "Fellside CHP", "operator": "Sellafield Ltd", "type": "Gas", "fuelDetail": "Combined cycle", "capacity": 180.0, "lowCarbon": "No", "chp": "Yes", "yearOpen": "1995", "yearStart": 2019.0, "yearEnd": 2019 }, "geometry": { "type": "Point", "coordinates": [ -3.4883, 54.4184 ] } },
{ "type": "Feature", "properties": { "site": "Dorenell Wind Farm (Previously Site A and B Scaut Hill)", "operator": "EDF Energy Renewables\/ Infinergy", "type": "Wind", "fuelDetail": "Onshore Wind", "capacity": 177.0, "lowCarbon": "Yes", "chp": "-", "yearOpen": "-", "yearStart": 2019.0, "yearEnd": 2019 },